ID,textureId,dmypolyId,pitchAngle,yawAngle,nearDistance,farDistance,nearSize,farSize,maskSpeffectId,pad_10,replaceTextureId_byMaterial,dmypolyCategory,pad_05,useDeferredDecal,usePaintDecal,bloodTypeEnable,bUseNormal,pad_08,pad_09,usePom,useEmissive,putVertical,randomSizeMin,randomSizeMax,randomRollMin,randomRollMax,randomPitchMin,randomPitchMax,randomYawMin,randomYawMax,pomHightScale,pomSampleMin,pomSampleMax,blendMode,appearDirType,emissiveValueBegin,emissiveValueEnd,emissiveTime,bIntpEnable,pad_01,intpIntervalDist,beginIntpTextureId,endIntpTextureId,appearSfxId,appearSfxOffsetPos,maskTextureId,diffuseTextureId,reflecTextureId,maskScale,normalTextureId,heightTextureId,emissiveTextureId,diffuseColorR,diffuseColorG,diffuseColorB,pad_03,reflecColorR,reflecColorG,reflecColorB,bLifeEnable,siniScale,lifeTimeSec,fadeOutTimeSec,priority,bDistThinOutEnable,bAlignedTexRandomVariationEnable,distThinOutCheckDist,distThinOutCheckAngleDeg,distThinOutMaxNum,distThinOutCheckNum,delayAppearFrame,randVaria_Diffuse,randVaria_Mask,randVaria_Reflec,pad_12,randVaria_Normal,randVaria_Height,randVaria_Emissive,pad_11,fadeInTimeSec,thinOutOverlapMultiRadius,thinOutNeighborAddRadius,thinOutOverlapLimitNum,thinOutNeighborLimitNum,thinOutMode,emissiveColorR,emissiveColorG,emissiveColorB,maxDecalSfxCreatableSlopeAngleDeg,pad_02
0,-1,-1,0,0,0,0,0,0,-1,0,0,0,0,1,1,0,0,0,0,0,0,0,100,100,0,0,0,0,0,0,1,8,64,1,0,1,1,0,0,System.Byte[],0.01,-1,-1,-1,0,-1,-1,-1,1,-1,-1,-1,255,255,255,System.Byte[],255,255,255,0,1,0,0,-1,0,0,0,0,2,5,0,0,0,0,0,0,0,0,0,0,0,0,0,0,0,255,255,255,-1,System.Byte[]
10,-1,-1,-90,0,-0.5,10,5,5,-1,0,0,0,0,1,1,0,1,0,0,0,0,0,100,100,0,0,0,0,0,0,1,8,64,1,1,0,0,0,0,System.Byte[],0.05,-1,-1,-1,0,999000000,9900030,99900010,1,999000000,-1,-1,200,0,0,System.Byte[],255,255,255,1,1,300,0,0,0,0,1,10,2,5,0,0,0,0,0,0,0,0,0,0,1,10,5,50,0,255,255,255,-1,System.Byte[]
20,100000,-1,0,0,-0.6,15,2,2,-1,0,0,0,0,1,1,0,0,0,0,0,1,0,100,100,0,0,0,0,0,0,1,8,64,1,0,40,0,15,1,System.Byte[],0.05,-1,-1,-1,0,0,100000,9900000,1,9900000,-1,-1,10,255,10,System.Byte[],255,255,255,1,1,60,10,0,1,0,1,10,2,5,0,1,1,1,0,1,1,1,0,0,1,10,5,50,0,255,255,255,-1,System.Byte[]
30,-1,-1,0,0,-5,10,15,15,-1,0,0,0,0,1,0,0,0,0,0,0,0,1,100,120,-180,180,0,0,0,0,1,8,64,1,1,10,0,0,0,System.Byte[],0.01,-1,-1,803430,0,30000,100000,100000,1,100000,-1,5200530,0,0,0,System.Byte[],0,0,0,0,0,10,5,-1,0,0,20,60,2,5,0,0,0,0,0,0,0,0,0,0,0.3,1,0,30,1,255,255,255,-1,System.Byte[]
40,-1,-1,0,0,-1,50,10,10,-1,0,0,0,0,1,0,0,0,0,0,0,1,1,100,100,100,0,0,0,0,0,0,8,8,1,1,5,5,3,0,System.Byte[],0.01,-1,-1,-1,-1,30100,10,10,1,-1,-1,40010,0,0,0,System.Byte[],0,0,0,0,0,0,0,0,0,0,1,1,1,1,0,0,0,0,0,0,0,0,0,0,1,1,1,1,0,0,0,255,-1,System.Byte[]
100010,-1,-1,-90,0,-0.5,0.5,1.2,1.2,-1,0,0,0,0,1,0,0,1,0,0,0,1,0,100,135,-180,180,0,0,0,0,1,8,64,1,0,12,1.5,10,0,System.Byte[],0.05,-1,-1,-1,0,-1,40000,-1,0.5,5421500,-1,-1,220,220,220,System.Byte[],0,0,0,1,0,8,4,0,1,0,1,10,2,5,0,3,0,0,0,0,0,0,0,0.5,0.65,0.25,3,5,1,255,255,255,-1,System.Byte[]
100020,-1,-1,-90,0,-0.5,0.5,1.2,1.2,-1,0,0,0,0,1,0,0,1,0,0,0,1,0,100,135,-180,180,0,0,0,0,1,8,64,1,0,12,1.5,10,0,System.Byte[],0.05,-1,-1,-1,0,-1,40000,-1,0.5,5421500,-1,-1,220,220,220,System.Byte[],0,0,0,1,0,8,4,0,1,0,1,10,2,5,0,3,0,0,0,0,0,0,0,0.5,0.65,0.25,3,5,1,255,255,255,-1,System.Byte[]
300010,6000001,-1,0,0,-1,5,8,8,-1,0,0,0,0,1,0,0,0,0,0,0,1,1,100,100,0,0,0,0,0,0,1,8,64,2,0,0.3,0.3,15,0,System.Byte[],0.05,-1,-1,5001,0,-1,6000001,100000,1,100002002,-1,6000001,255,255,255,System.Byte[],100,100,100,0,0.2,240,1,0,0,0,1,10,2,5,0,0,0,0,0,0,0,0,0,0.2,1,10,5,50,1,255,255,255,-1,System.Byte[]
300011,6000001,-1,0,0,-1,5,20,20,-1,0,0,0,0,1,0,0,0,0,0,0,1,1,100,130,0,0,0,0,0,0,1,8,64,1,0,40,40,15,0,System.Byte[],0.05,-1,-1,5002,0,-1,6000001,100000,1,-1,-1,6000001,255,255,255,System.Byte[],100,100,100,0,0.2,240,1,0,0,0,1,10,2,5,0,0,0,0,0,0,0,0,0,0.2,1,10,5,50,1,255,255,255,-1,System.Byte[]
300020,-1,-1,-90,0,-0.5,5,2,2,-1,0,0,0,0,1,0,1,0,0,0,0,0,0,100,125,-180,180,0,0,0,0,1,8,64,1,1,0,0,0,0,System.Byte[],0.05,-1,-1,-1,0,100000,100000,100000,1,-1,-1,-1,237,20,20,System.Byte[],90,7,7,0,1,60,3,0,0,1,1,10,2,5,0,0,5,0,0,0,0,0,0,0,1,10,5,50,0,255,255,255,-1,System.Byte[]
300030,-1,-1,0,0,-5,10,3.5,6,-1,0,0,0,0,1,0,0,0,0,0,0,1,1,100,180,-180,180,-15,15,-15,15,1,8,64,2,1,10,0,10,0,System.Byte[],0.01,-1,-1,645007,0,30000,100000,100000,1,100000,-1,-1,0,0,0,System.Byte[],0,0,0,1,0,10,5,-1,1,0,20,60,2,5,0,0,0,0,0,0,0,0,0,0,0.3,1,0,30,1,255,255,255,30,System.Byte[]
300031,-1,-1,0,0,-5,10,7,12,-1,0,0,0,0,1,0,0,0,0,0,0,1,1,100,180,-180,180,-15,15,-15,15,1,8,64,1,1,10,0,6,0,System.Byte[],0.01,-1,-1,645007,0,5000010,100000,100000,1,100000,-1,5200530,0,0,0,System.Byte[],0,0,0,1,0,10,5,-1,1,0,20,60,2,5,0,0,0,0,0,0,0,0,0,0,0.3,1,0,30,1,255,255,255,30,System.Byte[]
300040,-1,-1,0,0,-5,10,15,15,-1,0,0,0,0,1,0,0,0,0,0,0,0,1,100,120,-180,180,0,0,0,0,1,8,64,1,1,10,0,0,0,System.Byte[],0.01,-1,-1,-1,0,30000,100000,100000,1,100000,-1,5200530,0,0,0,System.Byte[],0,0,0,0,0,10,5,-1,0,0,20,60,2,5,0,0,0,0,0,0,0,0,0,0,0.3,1,0,30,1,255,255,255,-1,System.Byte[]
360000,-1,-1,0,0,-0.5,5,0.6,3,-1,0,0,0,0,1,0,1,0,0,0,0,1,0,100,100,0,0,0,0,0,0,1,8,64,1,0,40,0,15,0,System.Byte[],0.05,-1,-1,-1,0,100010,100000,100000,1,5421500,-1,-1,200,20,20,System.Byte[],255,200,200,0,1,180,30,0,0,0,1,10,2,5,3,0,5,0,0,0,0,0,0,0,1,10,5,50,0,255,255,255,-1,System.Byte[]
400000,5000010,-1,0,0,-0.4,0.4,5,5,-1,0,0,0,0,1,0,0,0,0,0,0,1,1,100,100,-180,180,0,0,0,0,1,8,64,1,1,30,0,6,0,System.Byte[],0.01,-1,-1,-1,0,-1,100000,-1,1,100000,-1,5200530,0,0,0,System.Byte[],0,0,0,1,0,10,3,-1,0,0,1,10,2,5,0,0,0,0,0,0,0,0,0,1,0,0,0,0,1,255,255,255,-1,System.Byte[]
400010,100000,-1,-90,-90,-1,2,1.5,8,-1,0,0,0,0,1,0,1,1,0,0,0,1,0,100,100,0,180,0,0,0,0,1,8,64,1,1,1.5,0,15,1,System.Byte[],0.05,-1,-1,-1,0,100010,100000,100000,0.5,5421500,-1,-1,188,15,15,System.Byte[],90,7,7,1,0.9,6,2,0,1,0,1,10,2,5,0,0,4,0,0,0,0,0,0,0.1,1,10,3,5,0,255,255,255,-1,System.Byte[]
400011,100000,-1,-90,-90,-1,2,2.5,12,-1,0,0,0,0,1,0,1,1,0,0,0,1,0,100,100,0,180,0,0,0,0,1,8,64,1,1,1.5,0,15,1,System.Byte[],0.05,-1,-1,-1,0,100010,100000,100000,0.5,5421500,-1,-1,188,15,15,System.Byte[],90,7,7,1,0.9,6,2,0,1,0,1,10,2,5,0,0,4,0,0,0,0,0,0,0.1,1,10,3,5,0,255,255,255,-1,System.Byte[]
400012,100000,-1,-90,-90,-1,2,3.5,16,-1,0,0,0,0,1,0,1,1,0,0,0,1,0,100,100,0,180,0,0,0,0,1,8,64,1,1,1.5,0,15,1,System.Byte[],0.05,-1,-1,-1,0,100010,100000,100000,0.5,5421500,-1,-1,188,15,15,System.Byte[],90,7,7,1,0.9,6,2,0,1,0,1,10,2,5,0,0,4,0,0,0,0,0,0,0.1,1,10,3,5,0,255,255,255,-1,System.Byte[]
400020,700000,-1,0,0,-0.5,1.5,1.5,3,-1,0,0,0,0,1,0,0,0,0,0,0,1,1,100,180,-180,180,-10,10,-10,10,1,8,64,1,1,10,0,6,0,System.Byte[],0.01,-1,-1,-1,0,-1,-1,9900030,1,700000,-1,-1,158,207,255,System.Byte[],158,207,255,1,1,0.9,0.45,0,0,0,1,10,2,5,0,0,0,0,0,0,0,0,0,0.225,1,10,5,50,1,255,255,255,-1,System.Byte[]
400030,600100,-1,0,0,-1,1,7.5,7.5,-1,0,0,0,0,1,0,0,0,0,0,0,1,1,100,100,0,0,0,0,0,0,1,8,64,1,0,10,0,0.75,0,System.Byte[],0.01,-1,-1,-1,0,-1,6000100,-1,1,-1,-1,6000100,255,255,255,System.Byte[],255,255,255,1,0,0.75,0.1,-1,0,0,1,10,2,5,0,0,0,0,0,0,0,0,0,0,0,0,0,0,1,255,255,255,-1,System.Byte[]
400040,100000,-1,0,0,-1,1,3,6,-1,0,0,0,0,1,0,1,0,0,0,0,1,0,80,120,-180,180,0,0,0,0,1,8,64,1,0,10,0,3.5,1,System.Byte[],0.05,-1,-1,-1,0,100010,100000,100000,1,100000,-1,5200530,40,1,2,System.Byte[],50,1,2,1,0.8,4,2.5,0,1,0,1,10,2,5,0,0,3,0,0,0,0,0,0,0.25,1,10,5,50,0,255,255,255,-1,System.Byte[]
400050,700000,-1,0,0,-0.5,1.5,2,4,-1,0,0,0,0,1,0,0,0,0,0,0,1,1,100,180,-180,180,-10,10,-10,10,1,8,64,1,1,10,0,6,0,System.Byte[],0.01,-1,-1,-1,0,-1,-1,9900030,1,700000,-1,-1,158,207,255,System.Byte[],158,207,255,1,1,1.5,0.5,0,0,0,1,10,2,5,0,0,0,0,0,0,0,0,0,0.25,1,10,5,50,1,255,255,255,-1,System.Byte[]
400060,-1,-1,0,0,-0.5,1,2.5,5,-1,0,0,0,0,1,0,0,0,0,0,0,1,1,100,125,-180,180,-15,15,-15,15,1,8,64,1,0,10,0,2,0,System.Byte[],0.01,-1,-1,-1,0,30000,100000,100000,1,100000,-1,5200530,0,0,0,System.Byte[],0,0,0,1,0,3,1.5,-1,1,0,20,60,2,5,0,0,0,0,0,0,0,0,0,1,0.3,1,0,30,1,255,255,255,30,System.Byte[]
400070,-1,-1,0,0,-0.5,1,2.5,5,-1,0,0,0,0,1,0,0,0,0,0,0,1,1,100,125,-180,180,-15,15,-15,15,1,8,64,1,0,10,0,2,0,System.Byte[],0.01,-1,-1,-1,0,30000,100000,100000,1,100000,-1,5200540,0,0,0,System.Byte[],0,0,0,1,0,3,1.5,-1,1,0,20,60,2,5,0,0,0,0,0,0,0,0,0,1,0.3,1,0,30,1,255,255,255,30,System.Byte[]
400080,700000,-1,0,0,-0.5,1,2.5,5,-1,0,0,0,0,1,0,0,0,0,0,0,1,1,100,125,-180,180,-15,15,-15,15,1,8,64,1,0,10,0,2,0,System.Byte[],0.01,-1,-1,-1,0,-1,-1,9900030,1,700000,-1,-1,158,207,255,System.Byte[],158,207,255,1,1,3,1.5,-1,1,0,20,60,2,5,0,0,0,0,0,0,0,0,0,1,0.3,1,0,30,1,255,255,255,30,System.Byte[]
400090,-1,-1,0,0,-0.5,1,2.5,5,-1,0,0,0,0,1,0,0,0,0,0,0,1,1,100,125,-180,180,-15,15,-15,15,1,8,64,1,0,5,0,2,0,System.Byte[],0.01,-1,-1,-1,0,30000,100000,100000,1,100000,-1,5200550,0,0,0,System.Byte[],0,0,0,1,0,3,1.5,-1,1,0,20,60,2,5,0,0,0,0,0,0,0,0,0,1,0.3,1,0,30,1,255,255,255,30,System.Byte[]
400100,-1,-1,0,0,-0.5,1,3,6,-1,0,0,0,0,1,0,0,0,0,0,0,1,1,100,125,-180,180,-15,15,-15,15,1,8,64,1,0,50,0,7.5,0,System.Byte[],0.01,-1,-1,-1,0,30000,100000,100000,1,100000,-1,5200530,0,0,0,System.Byte[],0,0,0,1,0,10,1.5,-1,0,0,20,60,2,5,0,0,0,0,0,0,0,0,0,1,0.3,1,0,30,1,255,255,255,30,System.Byte[]
400110,-1,-1,0,0,-0.5,1,5,10,-1,0,0,0,0,1,0,0,0,0,0,0,1,1,100,125,-180,180,-15,15,-15,15,1,8,64,1,0,50,0,1,0,System.Byte[],0.01,-1,-1,-1,0,30000,100000,100000,1,100000,-1,5200530,0,0,0,System.Byte[],0,0,0,1,0,2,1.5,-1,1,0,20,60,2,5,0,0,0,0,0,0,0,0,0,1,0.3,1,0,30,1,255,255,255,30,System.Byte[]
400120,600100,-1,0,0,-1,1,7.5,7.5,-1,0,0,0,0,1,0,0,0,0,0,0,1,1,100,100,180,180,0,0,0,0,1,8,64,1,0,10,0,0.75,0,System.Byte[],0.01,-1,-1,-1,0,-1,6000100,-1,1,-1,-1,6000100,255,255,255,System.Byte[],255,255,255,1,0,0.75,0.1,-1,0,0,1,10,2,5,0,0,0,0,0,0,0,0,0,0,0,0,0,0,1,255,255,255,-1,System.Byte[]
421500,100010,-1,0,0,-1,5,1,4,-1,0,0,0,0,1,0,0,1,0,0,0,1,1,40,55,0,0,0,0,0,0,1,8,64,1,0,1.5,0.05,60,0,System.Byte[],0.05,-1,-1,621500,0,101000,100000,100000,1,5421500,-1,5421500,107,140,168,System.Byte[],150,150,180,1,0.8,300,20,0,1,0,1,10,2,5,0,0,3,0,0,0,0,0,0,0.5,0.25,5,3,3,1,255,255,255,-1,System.Byte[]
421501,5421530,-1,-90,0,-0.5,0.5,1,1,-1,0,0,0,0,1,0,0,1,0,0,0,1,0,140,145,15,15,0,0,0,0,1,8,64,1,0,12,1.5,10,0,System.Byte[],0.05,-1,-1,621500,0,-1,5421530,100000,1,5421530,-1,5421532,60,66,44,System.Byte[],255,255,255,1,1,30,20,0,1,0,1,10,2,5,0,0,0,0,0,0,0,2,0,0.5,2,5,1,3,1,255,255,255,-1,System.Byte[]
421502,100010,-1,-90,0,-0.25,0.25,1.5,0.5,-1,0,0,0,0,1,0,0,1,0,0,0,1,0,20,100,-180,180,0,0,0,0,1,8,64,1,0,20,5,60,1,System.Byte[],0.25,-1,-1,621500,0,101000,210000,100000,1,-1,-1,5421500,107,140,168,System.Byte[],25,25,25,1,1,1,1,0,1,0,1,10,2,5,0,0,3,0,0,0,0,0,0,0.125,0.5,1.5,5,5,1,255,255,255,-1,System.Byte[]
430700,100010,-1,0,0,-1,3,1,3,-1,0,0,0,0,1,0,0,0,0,0,0,1,1,130,160,-20,40,-10,10,-10,10,1,8,64,1,1,0.02,0,2,0,System.Byte[],0.05,-1,-1,-1,0,100010,210000,100000,1,100000,-1,5600000,26,7,1,System.Byte[],26,7,1,1,1,30,10,0,1,0,1,10,2,5,0,0,4,0,0,0,0,0,0,0,1,10,5,50,0,255,255,255,-1,System.Byte[]
431800,30000,-1,0,0,-2,1,1.5,4,-1,0,0,0,0,1,0,0,0,0,0,0,1,1,100,180,-180,180,-20,20,-20,20,1,8,64,1,1,20,0,4,0,System.Byte[],0.01,-1,-1,-1,0,100010,210000,100000,1,100000,-1,5421510,78,100,118,System.Byte[],78,100,118,1,0.2,2,2,0,1,0,1,10,2,5,0,0,3,0,0,0,0,0,0,0.5,0.25,1,10,50,1,255,255,255,-1,System.Byte[]
433000,100010,-1,-30,180,-0.5,0.5,0.3,1,-1,0,0,0,0,1,0,0,0,0,0,0,1,0,80,160,0,0,0,0,0,0,1,8,64,1,0,100,0,15,1,System.Byte[],0.05,-1,-1,-1,0,100010,210000,100000,1,100000,-1,5421510,75,75,75,System.Byte[],255,255,255,1,1,30,10,0,1,0,1,10,2,5,0,0,4,0,0,0,0,0,0,0,1,10,5,50,0,255,255,255,-1,System.Byte[]
435500,-1,-1,180,0,-0.75,1.5,5,15,-1,0,0,0,0,1,0,0,1,0,0,0,1,0,100,100,-180,180,-5,5,-5,5,1,8,64,1,0,1.5,0,15,1,System.Byte[],0.05,-1,-1,-1,0,100010,210000,10,1,5421500,-1,-1,255,15,15,System.Byte[],255,200,200,1,1,30,2,0,1,0,1,10,2,5,0,0,0,0,0,0,0,0,0,0.25,1,10,5,50,0,255,255,255,-1,System.Byte[]
435505,100000,-1,-90,-90,-3,1,4,4,-1,0,0,0,0,1,0,1,1,0,0,0,1,0,100,100,0,180,-20,20,-20,20,1,8,64,1,1,1.5,0,15,0,System.Byte[],0.05,-1,-1,-1,0,5500500,210000,10,0.5,5421500,-1,-1,255,15,15,System.Byte[],255,200,200,1,1,6,2,0,1,0,1,10,2,5,0,0,0,0,0,0,0,0,0,2,0.5,3,25,50,1,255,255,255,-1,System.Byte[]
436610,100010,-1,0,0,-2,3,5.5,5.5,-1,0,0,0,0,1,0,0,0,0,0,0,0,1,100,100,-180,180,0,0,0,0,1,8,64,1,1,0,0,0,0,System.Byte[],0.05,-1,-1,-1,0,100010,210000,100000,1,100000,-1,-1,128,106,64,System.Byte[],255,213,128,1,1,6,3,0,0,0,1,10,2,5,0,0,0,0,0,0,0,0,0,0.1,1,10,5,50,0,255,255,255,-1,System.Byte[]
436611,100010,-1,0,0,-2,3,5.5,5.5,-1,0,0,0,0,1,0,0,0,0,0,0,0,1,100,100,-180,180,0,0,0,0,1,8,64,2,1,0,0,0,0,System.Byte[],0.05,-1,-1,-1,0,100010,210000,100000,1,100000,-1,-1,191,159,96,System.Byte[],255,213,128,1,1,6,3,0,0,0,1,10,2,5,0,0,0,0,0,0,0,0,0,0.1,1,10,5,50,0,255,255,255,-1,System.Byte[]
436612,100010,-1,0,0,-2,3,6,6,-1,0,0,0,0,1,0,0,0,0,0,0,0,1,100,100,-180,180,0,0,0,0,1,8,64,1,1,0,0,0,0,System.Byte[],0.05,-1,-1,-1,0,100010,210000,100000,1,100000,-1,-1,128,106,64,System.Byte[],255,213,128,1,1,6,3,0,0,0,1,10,2,5,0,0,0,0,0,0,0,0,0,0.1,1,10,5,50,0,255,255,255,-1,System.Byte[]
436613,100010,-1,0,0,-2,3,6,6,-1,0,0,0,0,1,0,0,0,0,0,0,0,1,100,100,-180,180,0,0,0,0,1,8,64,2,1,0,0,0,0,System.Byte[],0.05,-1,-1,-1,0,100010,210000,100000,1,100000,-1,-1,191,159,96,System.Byte[],255,213,128,1,1,6,3,0,0,0,1,10,2,5,0,0,0,0,0,0,0,0,0,0.1,1,10,5,50,0,255,255,255,-1,System.Byte[]
438000,100010,-1,0,0,-1,5,2,8,-1,0,0,0,0,1,0,0,0,0,0,0,0,1,130,160,-20,40,-10,10,-10,10,1,8,64,2,1,0,0,0,0,System.Byte[],0.05,-1,-1,-1,0,100010,210000,100000,1,100000,-1,-1,135,75,31,System.Byte[],135,75,31,1,1,60,10,0,1,0,1,10,2,5,0,0,4,0,0,0,0,0,0,0,1,10,5,50,0,255,255,255,-1,System.Byte[]
439500,100010,-1,0,0,-1,3,1,4,-1,0,0,0,0,1,0,0,0,0,0,0,0,1,130,160,-20,40,-10,10,-10,10,1,8,64,2,1,0,0,0,0,System.Byte[],0.05,-1,-1,-1,0,100010,210000,100000,1,100000,-1,-1,102,135,31,System.Byte[],102,135,31,1,1,30,30,0,1,0,1,10,2,5,0,0,4,0,0,0,0,0,0,0.2,1,10,5,50,0,255,255,255,-1,System.Byte[]
440200,100010,-1,0,0,-1,2,1.5,8,-1,0,0,0,0,1,0,0,0,0,0,0,0,1,100,100,-180,180,0,0,0,0,1,8,64,1,1,0,0,0,0,System.Byte[],0.05,-1,-1,-1,0,100010,210000,100000,1,100000,-1,-1,24,33,8,System.Byte[],24,33,8,1,1,8,3,0,0,0,1,10,2,5,0,0,0,0,0,0,0,0,0,0.1,1,10,5,50,0,255,255,255,-1,System.Byte[]
440400,-1,-1,0,0,-0.5,0.5,2,2,-1,0,0,0,0,1,0,0,0,0,0,0,1,1,100,100,-180,180,0,0,0,0,1,8,64,1,1,10,0,4,0,System.Byte[],0.05,-1,-1,-1,0,100010,100000,100000,1,5500500,-1,5200530,0,0,0,System.Byte[],0,0,0,1,0,60,3,0,0,0,1,10,2,5,0,0,0,0,0,0,0,0,0,0,1,10,5,50,0,255,255,255,-1,System.Byte[]
440401,100010,-1,0,0,-0.5,0.5,2,2,-1,0,0,0,0,1,0,0,0,0,0,0,0,1,100,100,-180,180,0,0,0,0,1,8,64,1,1,0,0,0,0,System.Byte[],0.05,-1,-1,-1,0,100010,210000,100000,1,100000,-1,-1,5,1,1,System.Byte[],64,48,48,1,1,60,3,0,0,0,1,10,2,5,0,0,0,0,0,0,0,0,0,0,1,10,5,50,0,255,255,255,-1,System.Byte[]
440402,100010,-1,0,0,-0.5,0.5,2,2,-1,0,0,0,0,1,0,0,0,0,0,0,0,1,100,100,-180,180,0,0,0,0,1,8,64,1,1,0,0,0,0,System.Byte[],0.05,-1,-1,-1,0,100010,210000,100000,0.5,100000,-1,-1,128,106,64,System.Byte[],255,213,128,1,1,60,3,0,0,0,1,10,2,5,0,0,0,0,0,0,0,0,0,0,1,10,5,50,0,255,255,255,-1,System.Byte[]
441300,100000,-1,40,0,-0.4,5,0.2,2.5,-1,0,0,0,0,0,1,1,0,0,0,0,1,0,130,160,-20,40,-80,10,-60,60,1,8,64,1,2,40,0,15,1,System.Byte[],0.05,-1,-1,-1,0,-1,-1,-1,1,-1,-1,-1,200,20,20,System.Byte[],255,200,200,0,1,60,10,0,1,0,1,10,2,5,3,0,4,0,0,0,0,0,0,0,1,10,5,50,0,255,255,255,-1,System.Byte[]
441301,100010,-1,40,0,-1,6,0.2,2.5,-1,0,0,0,0,1,0,1,0,0,0,0,1,0,130,160,-20,40,-80,10,-60,60,1,8,64,1,2,40,0,15,1,System.Byte[],0.05,-1,-1,-1,0,100010,100000,100000,1,100000,-1,-1,200,20,20,System.Byte[],255,200,200,0,1,60,10,0,1,0,1,10,2,5,3,0,4,0,0,0,0,0,0,0,1,10,5,50,0,255,255,255,-1,System.Byte[]
441908,-1,-1,-90,0,-0.25,0.25,2.5,1.3,12642,0,0,0,0,1,0,0,1,0,0,0,1,0,60,100,-180,180,0,0,0,0,1,8,64,1,0,7,2.5,2,1,System.Byte[],0.25,-1,-1,641922,0,101000,210000,100000,1,-1,-1,5421510,211,217,224,System.Byte[],240,240,240,1,1,2.5,0.5,0,0,0,1,10,2,5,0,0,3,0,0,0,0,0,0,0.125,0.5,1.5,5,5,1,255,255,255,-1,System.Byte[]
441909,-1,-1,-90,0,-0.25,0.25,2.5,1.3,12645,0,0,0,0,1,0,0,1,0,0,0,1,0,60,100,-180,180,0,0,0,0,1,8,64,1,0,3.5,1.25,2,1,System.Byte[],0.25,-1,-1,641923,0,101000,210000,100000,1,-1,-1,5421520,103,201,182,System.Byte[],50,50,50,1,0.7,2.5,0.5,0,0,0,1,10,2,5,0,0,3,0,0,0,0,0,0,0.125,0.5,1.5,5,5,1,255,255,255,-1,System.Byte[]
441910,-1,-1,-90,0,-0.25,0.25,2.5,1.3,12646,0,0,0,0,1,0,0,1,0,0,0,1,0,60,100,-180,180,0,0,0,0,1,8,64,1,0,7,2.5,2,1,System.Byte[],0.25,-1,-1,641924,0,101000,210000,100000,1,-1,-1,5421530,231,240,120,System.Byte[],50,50,50,1,0.7,2.5,0.5,0,0,0,1,10,2,5,0,0,3,0,0,0,0,0,0,0.125,0.5,1.5,5,5,1,255,255,255,-1,System.Byte[]
442200,100000,-1,-90,-90,-3,2.5,12,12,-1,0,0,0,0,1,0,1,1,0,0,0,1,0,100,100,0,180,0,0,0,0,1,8,64,1,1,1.5,0,15,1,System.Byte[],0.05,-1,-1,-1,0,30101,100000,100000,1,5421500,-1,-1,220,202,190,System.Byte[],220,202,100,1,0.9,30,0.5,0,0,0,1,10,2,5,0,0,0,0,0,0,0,0,0,0.25,0,0,0,0,0,255,255,255,-1,System.Byte[]
442201,100000,-1,-90,-90,-2.5,3,10,10,-1,0,0,0,0,1,0,1,1,0,0,0,1,0,100,100,0,180,0,0,0,0,1,8,64,1,1,1.5,0,15,1,System.Byte[],0.05,-1,-1,-1,0,30101,100000,100000,0.5,5421500,-1,-1,220,202,190,System.Byte[],220,202,190,1,0.9,90,0.5,0,1,0,1,10,2,5,0,0,0,0,0,0,0,0,0,0.25,1,5,0,0,0,255,255,255,-1,System.Byte[]
442202,100000,-1,-90,0,-5,10,6,6,-1,0,0,0,0,1,0,0,1,0,0,0,0,0,100,120,0,0,0,0,0,0,1,8,64,1,0,1.5,0,15,0,System.Byte[],0.05,-1,-1,-1,0,121000,100000,100000,1,5421500,-1,-1,220,202,190,System.Byte[],220,202,190,1,1,5,2,0,1,0,1,10,2,5,0,0,3,0,0,0,0,0,0,0.125,0.5,6.5,8,8,1,255,255,255,-1,System.Byte[]
442203,100000,-1,-90,0,-2.5,3,3,3,-1,0,0,0,0,1,0,0,1,0,0,0,0,0,100,120,-180,180,0,0,0,0,1,8,64,1,0,1.5,0,15,0,System.Byte[],0.05,-1,-1,-1,0,100010,100000,100000,1,5421500,-1,-1,220,202,190,System.Byte[],220,202,190,1,1,5,2,0,1,0,1,10,2,5,0,0,4,0,0,0,0,0,0,0.125,1.5,3,10,10,1,255,255,255,-1,System.Byte[]
442204,100000,-1,0,0,-2.5,10,2,2,-1,0,0,0,0,1,0,0,1,0,0,0,0,0,50,100,-180,180,-60,-75,-20,20,1,8,64,1,0,1.5,0,15,0,System.Byte[],0.05,-1,-1,-1,0,100010,100000,100000,1,5421500,-1,-1,220,202,190,System.Byte[],220,202,190,1,1,5,2,0,1,0,1,10,2,5,0,0,3,0,0,0,0,0,0,0.125,2,3,10,10,1,255,255,255,-1,System.Byte[]
442600,-1,-1,0,0,-1.25,5,2.5,3.75,-1,0,0,0,0,1,0,0,0,0,0,0,1,1,100,180,-180,180,-10,10,-10,10,1,8,64,1,1,10,0,6,0,System.Byte[],0.01,-1,-1,642604,0,30000,100000,100000,1,100000,-1,5200530,0,0,0,System.Byte[],0,0,0,1,0,15,3,0,1,0,1,10,2,5,0,0,0,0,0,0,0,0,0,1,1,10,5,50,1,255,255,255,-1,System.Byte[]
442601,700000,-1,0,0,-1.25,5,2,3,-1,0,0,0,0,1,0,0,0,0,0,0,1,1,100,180,-180,180,-10,10,-10,10,1,8,64,1,1,10,0,6,0,System.Byte[],0.01,-1,-1,-1,0,-1,-1,9900030,1,700000,-1,-1,158,207,255,System.Byte[],158,207,255,1,1,15,3,0,1,0,1,10,2,5,0,0,0,0,0,0,0,0,0,1,1,10,5,50,1,255,255,255,-1,System.Byte[]
442701,700000,-1,0,0,-1.25,5,2,3,-1,0,0,0,0,1,0,0,0,0,0,0,1,1,100,180,-180,180,-10,10,-10,10,1,8,64,1,1,10,0,6,0,System.Byte[],0.01,-1,-1,-1,0,-1,-1,9900030,1,700000,-1,-1,158,207,255,System.Byte[],158,207,255,1,1,15,3,0,1,0,1,10,2,5,0,0,0,0,0,0,0,0,0,1,1,10,5,50,1,255,255,255,-1,System.Byte[]
442800,100010,-1,0,0,-2,3,5,10,-1,0,0,0,0,1,0,0,0,0,0,0,0,1,150,160,-180,180,-5,5,-5,5,1,8,64,1,1,0,0,0,0,System.Byte[],0.05,-1,-1,-1,0,100010,210000,100000,1,5421500,-1,-1,72,97,86,System.Byte[],72,97,86,1,1,60,10,0,1,0,1,10,2,5,0,0,0,0,0,0,0,0,0,0.1,1,10,5,50,0,255,255,255,-1,System.Byte[]
443000,-1,-1,-90,0,-0.5,0.5,1.2,1.2,-1,0,0,0,0,1,0,0,1,0,0,0,1,0,100,135,-180,180,0,0,0,0,1,8,64,1,1,12,1.5,10,0,System.Byte[],0.05,-1,-1,-1,0,-1,40000,-1,0.5,5421500,-1,-1,220,220,220,System.Byte[],0,0,0,1,0,8,4,0,1,0,1,10,2,5,0,3,0,0,0,0,0,0,0,0.5,0.65,0.25,3,5,1,255,255,255,-1,System.Byte[]
443400,100000,-1,-90,-90,-3,1,1.5,3,-1,0,0,0,0,1,0,1,1,0,0,0,1,0,100,100,0,180,0,0,0,0,1,8,64,1,1,1.5,0,15,1,System.Byte[],0.05,-1,-1,-1,0,100010,100000,100000,0.4,5421500,-1,-1,155,125,85,System.Byte[],255,255,255,1,0.6,30,0.5,0,1,0,1,10,2,5,0,0,4,0,0,0,0,0,0,0.25,1,10,5,10,0,255,255,255,-1,System.Byte[]
443800,100000,-1,-90,-90,-3,1,3,6,-1,0,0,0,0,1,0,1,1,0,0,0,1,0,100,100,0,180,0,0,0,0,1,8,64,1,1,1.5,0,15,1,System.Byte[],0.05,-1,-1,-1,0,100010,100000,100000,0.5,5421500,-1,-1,188,15,15,System.Byte[],90,7,7,1,0.9,6,2,0,1,0,1,10,2,5,0,0,4,0,0,0,0,0,0,0.1,1,10,5,50,0,255,255,255,-1,System.Byte[]
443801,100000,-1,-90,-90,-3,1,5,10,-1,0,0,0,0,1,0,1,1,0,0,0,1,0,100,100,0,180,0,0,0,0,1,8,64,1,1,1.5,0,15,1,System.Byte[],0.05,-1,-1,-1,0,100010,100000,100000,0.5,5421500,-1,-1,188,15,15,System.Byte[],90,7,7,1,0.9,6,2,0,1,0,1,10,2,5,0,0,4,0,0,0,0,0,0,0.1,1,10,5,50,0,255,255,255,-1,System.Byte[]
443802,100000,-1,-90,-90,-3,1,7,14,-1,0,0,0,0,1,0,1,1,0,0,0,1,0,100,100,0,180,0,0,0,0,1,8,64,1,1,1.5,0,15,1,System.Byte[],0.05,-1,-1,-1,0,100010,100000,100000,0.5,-1,-1,-1,188,15,15,System.Byte[],90,7,7,1,0.9,6,2,0,1,0,1,10,2,5,0,0,4,0,0,0,0,0,0,0.1,1,10,5,50,0,255,255,255,-1,System.Byte[]
443803,100000,-1,-90,-90,-1.5,5,2,10,-1,0,0,0,0,1,0,1,1,0,0,0,1,0,100,100,-180,180,-45,45,-45,45,1,8,64,1,1,1.5,0,15,1,System.Byte[],0.05,-1,-1,-1,0,100010,100000,100000,0.5,5421500,-1,-1,188,15,15,System.Byte[],90,7,7,1,0.9,6,2,0,1,0,1,10,2,5,0,0,4,0,0,0,0,0,0,0.1,0.5,3,25,50,0,255,255,255,-1,System.Byte[]
443810,100000,-1,-90,-90,-3,1,1,3,-1,0,0,0,0,1,0,1,1,0,0,0,1,0,100,100,0,180,-20,20,-20,20,1,8,64,1,1,1.5,0,15,0,System.Byte[],0.05,-1,-1,-1,0,100010,100000,100000,0.5,5421500,-1,-1,188,15,15,System.Byte[],90,7,7,1,0.9,4,2,0,1,0,1,10,2,5,0,0,4,0,0,0,0,0,0,0.1,0.5,3,25,50,1,255,255,255,-1,System.Byte[]
443812,100000,-1,-90,-90,-3,1,3,6,-1,0,0,0,0,1,0,1,1,0,0,0,1,0,100,100,0,180,0,0,0,0,1,8,64,1,1,1.5,0,15,1,System.Byte[],0.05,-1,-1,-1,0,100010,100000,100000,0.5,5421500,-1,-1,188,15,15,System.Byte[],90,7,7,1,0.9,6,2,0,1,0,1,10,2,5,0,0,4,0,0,0,0,0,0,0.1,1,10,5,50,0,255,255,255,-1,System.Byte[]
443850,100010,-1,0,0,-1,5,3,6,-1,0,0,0,0,1,0,0,0,0,0,0,0,1,130,160,-20,40,-10,10,-10,10,1,8,64,1,1,0,0,0,0,System.Byte[],0.05,-1,-1,-1,0,100010,210000,100000,0.75,100000,-1,-1,64,26,16,System.Byte[],64,26,16,1,1,60,10,0,1,0,1,10,2,5,0,0,4,0,0,0,0,0,0,0,1,10,5,50,0,255,255,255,-1,System.Byte[]
445000,-1,-1,0,0,-5,10,10,15,-1,0,0,0,0,1,0,0,0,0,0,0,1,1,100,180,-180,180,-15,15,-15,15,1,8,64,1,1,10,0,5,0,System.Byte[],0.01,-1,-1,645007,0,30000,100000,100000,1,100000,-1,5200530,0,0,0,System.Byte[],0,0,0,1,0,10,3,-1,1,0,20,60,2,5,0,0,0,0,0,0,0,0,0,1,0.3,1,0,30,1,255,255,255,30,System.Byte[]
445002,-1,-1,0,0,-5,10,10,15,-1,0,0,0,0,1,0,0,0,0,0,0,1,1,100,180,-180,180,-15,15,-15,15,1,8,64,1,1,10,0,5,0,System.Byte[],0.01,-1,-1,644987,0,30000,100000,100000,1,100000,-1,5200540,0,0,0,System.Byte[],0,0,0,1,0,10,3,-1,1,0,20,60,2,5,0,0,0,0,0,0,0,0,0,1,0.3,1,0,30,1,255,255,255,30,System.Byte[]
445004,700000,-1,0,0,-5,10,3,5.5,-1,0,0,0,0,1,0,0,0,0,0,0,1,1,100,180,-180,180,-15,15,-15,15,1,8,64,1,1,5,0,2,0,System.Byte[],0.01,-1,-1,644997,0,-1,-1,9900030,1,700000,-1,-1,158,207,255,System.Byte[],158,207,255,1,1,10,3,-1,1,0,20,60,2,5,0,0,0,0,0,0,0,0,0,1,0.3,1,0,30,1,255,255,255,30,System.Byte[]
445006,-1,-1,0,0,-5,10,10,15,-1,0,0,0,0,1,0,0,0,0,0,0,1,1,100,180,-180,180,-15,15,-15,15,1,8,64,1,1,5,0,5,0,System.Byte[],0.01,-1,-1,644967,0,30000,100000,100000,1,100000,-1,5200550,0,0,0,System.Byte[],0,0,0,1,0,10,3,-1,1,0,20,60,2,5,0,0,0,0,0,0,0,0,0,1,0.3,1,0,30,1,255,255,255,30,System.Byte[]
445100,-1,-1,0,0,-5,20,15,22.5,-1,0,0,0,0,1,0,0,0,0,0,0,1,1,100,180,-180,180,-45,45,-45,45,1,8,64,1,1,10,0,6,0,System.Byte[],0.01,-1,-1,870042,0,30000,100000,100000,1,100000,-1,5200530,0,0,0,System.Byte[],0,0,0,1,0,15,3,-1,1,0,20,60,2,5,0,0,0,0,0,0,0,0,0,1,0.03,-9,0,1,1,255,255,255,30,System.Byte[]
445101,-1,-1,0,0,-5,20,10,15,-1,0,0,0,0,1,0,0,0,0,0,0,1,1,100,180,-180,180,-45,45,-45,45,1,8,64,1,1,10,0,6,0,System.Byte[],0.01,-1,-1,870042,0,30000,100000,100000,1,100000,-1,5200530,0,0,0,System.Byte[],0,0,0,1,0,15,3,-1,1,0,20,60,2,5,0,0,0,0,0,0,0,0,0,1,0.03,-9,0,1,1,255,255,255,30,System.Byte[]
445700,100010,-1,0,0,-2,3,2,8,-1,0,0,0,0,1,0,0,0,0,0,0,0,1,130,160,-20,40,-10,10,-10,10,1,8,64,2,1,0,0,0,0,System.Byte[],0.05,-1,-1,-1,0,100010,210000,100000,1,100000,-1,-1,255,128,213,System.Byte[],255,128,213,1,1,60,10,0,1,0,1,10,2,5,0,0,3,0,0,0,0,0,0,0.1,1,10,5,50,0,255,255,255,-1,System.Byte[]
445800,100010,-1,0,0,-2,3,2,8,-1,0,0,0,0,1,0,0,0,0,0,0,0,1,130,160,-20,40,-10,10,-10,10,1,8,64,2,1,0,0,0,0,System.Byte[],0.05,-1,-1,-1,0,100010,210000,100000,1,100000,-1,-1,255,128,213,System.Byte[],255,128,213,1,1,60,10,0,1,0,1,60,2,5,0,0,3,0,0,0,0,0,0,0.1,1,10,5,50,0,255,255,255,-1,System.Byte[]
446000,-1,-1,0,0,-1.25,5,24,36,-1,0,0,0,0,1,0,0,0,0,0,0,1,1,100,100,-180,180,0,0,0,0,1,8,64,1,1,10,0,4,0,System.Byte[],0.01,-1,-1,-1,0,30000,100000,100000,1,100000,-1,5200540,0,0,0,System.Byte[],0,0,0,1,0,15,3,0,1,0,1,10,2,5,0,0,0,0,0,0,0,0,0,1,1,10,5,50,1,255,255,255,-1,System.Byte[]
446400,-1,-1,0,0,-1,2,1.5,1.5,-1,0,0,0,0,1,1,0,0,0,0,0,1,1,100,180,-180,180,-10,10,-10,10,1,8,64,1,1,10,0,6,0,System.Byte[],0.01,-1,-1,-1,0,30000,100000,100000,1,100000,-1,800020,0,0,0,System.Byte[],0,0,0,1,0,15,3,0,1,0,1,10,2,5,0,0,0,0,0,0,0,0,0,0,1,10,5,50,0,255,255,255,-1,System.Byte[]
446600,100000,-1,0,0,-2,4,2,6,-1,0,0,0,0,1,0,0,0,0,0,0,1,1,100,180,-180,180,-20,20,-20,20,1,8,64,1,1,2.5,0.15,0.75,0,System.Byte[],0.01,-1,-1,-1,0,100010,100000,100000,1,100000,-1,5200530,0,0,0,System.Byte[],0,0,0,1,0,3,3,0,1,0,1,10,2,5,0,0,3,0,0,0,0,0,0,0,0.25,5,3,3,0,255,255,255,-1,System.Byte[]
446601,100000,-1,0,0,-2,4,5,11,-1,0,0,0,0,1,0,0,0,0,0,0,1,1,100,120,-180,180,-10,10,-10,10,1,8,64,1,1,2.5,0.15,0.75,0,System.Byte[],0.01,-1,-1,-1,0,100010,100000,100000,1,100000,-1,5200530,0,0,0,System.Byte[],0,0,0,1,0,3,3,0,1,0,1,10,2,5,0,0,3,0,0,0,0,0,0,0,0.25,5,3,3,0,255,255,255,-1,System.Byte[]
446602,5000010,-1,0,0,-0.4,0.4,9,11,-1,0,0,0,0,1,0,0,0,0,0,0,1,1,100,100,-180,180,0,0,0,0,1,8,64,1,1,10,0,3,0,System.Byte[],0.01,-1,-1,-1,0,-1,100000,-1,1,100000,-1,5200530,0,0,0,System.Byte[],0,0,0,1,0,6,3,-1,1,0,20,0,2,5,0,0,0,0,0,0,0,0,0,0.1,0.5,1,10,50,1,255,255,255,-1,System.Byte[]
447500,5000010,-1,0,0,-0.4,0.4,6,6,-1,0,0,0,0,1,0,0,0,0,0,0,1,1,100,100,-180,180,0,0,0,0,1,8,64,1,1,10,0,3,0,System.Byte[],0.01,-1,-1,647555,0,-1,100000,-1,1,100000,-1,5200530,0,0,0,System.Byte[],0,0,0,1,0,6,3,-1,1,0,20,0,2,5,0,0,0,0,0,0,0,0,0,0.1,1,1,5,5,1,255,255,255,-1,System.Byte[]
447501,5000010,-1,0,0,-0.4,0.4,20,20,-1,0,0,0,0,1,0,0,0,0,0,0,1,1,100,100,-180,180,0,0,0,0,1,8,64,1,1,10,0,3,0,System.Byte[],0.01,-1,-1,-1,0,-1,100000,-1,1,100000,-1,5200530,0,0,0,System.Byte[],0,0,0,1,0,6,3,-1,0,0,20,0,2,5,0,0,0,0,0,0,0,0,0,0.1,1,1,5,5,1,255,255,255,-1,System.Byte[]
447502,-1,-1,0,0,-1,2,5,5,-1,0,0,0,0,1,1,0,0,0,0,0,1,1,100,180,-180,180,-10,10,-10,10,1,8,64,1,1,10,0,9,0,System.Byte[],0.01,-1,-1,-1,0,30000,100000,100000,1,100000,-1,800020,0,0,0,System.Byte[],0,0,0,1,0,25,3,0,1,0,1,10,2,5,0,0,0,0,0,0,0,0,0,0,1,10,5,50,0,255,255,255,-1,System.Byte[]
447600,-1,-1,0,0,-5,5,10,10,-1,0,0,0,0,1,0,0,0,0,0,0,1,1,100,100,-180,180,0,0,0,0,1,8,64,1,1,10,0,3,0,System.Byte[],0.01,-1,-1,-1,0,30000,100000,-1,1,100000,-1,5200530,0,0,0,System.Byte[],0,0,0,1,0,6,3,-1,1,0,20,0,2,5,0,0,0,0,0,0,0,0,0,0.1,1,1,5,5,1,255,255,255,-1,System.Byte[]
447601,-1,-1,0,0,-5,5,20,20,-1,0,0,0,0,1,0,0,0,0,0,0,1,1,100,100,-180,180,0,0,0,0,1,8,64,1,1,10,0,3,0,System.Byte[],0.01,-1,-1,-1,0,30000,100000,-1,1,100000,-1,5200530,0,0,0,System.Byte[],0,0,0,1,0,6,3,-1,1,0,20,0,2,5,0,0,0,0,0,0,0,0,0,0.1,1,1,5,5,1,255,255,255,-1,System.Byte[]
447602,-1,-1,0,0,-5,5,6,6,-1,0,0,0,0,1,0,0,0,0,0,0,1,1,100,100,-180,180,0,0,0,0,1,8,64,1,1,10,0,3,0,System.Byte[],0.01,-1,-1,-1,0,30000,100000,-1,1,100000,-1,5200530,0,0,0,System.Byte[],0,0,0,1,0,6,3,-1,1,0,20,0,2,5,0,0,0,0,0,0,0,0,0,0.1,1,1,5,5,1,255,255,255,-1,System.Byte[]
447603,-1,-1,0,0,-5,5,6,6,-1,0,0,0,0,1,0,0,0,0,0,0,1,1,100,100,-180,180,0,0,0,0,1,8,64,1,1,10,0,3,0,System.Byte[],0.01,-1,-1,-1,0,30000,100000,-1,1,100000,-1,5200530,0,0,0,System.Byte[],0,0,0,1,0,6,3,-1,1,0,20,0,2,5,0,0,0,0,0,0,0,0,0,0.1,1,1,5,5,1,255,255,255,-1,System.Byte[]
447604,-1,-1,0,0,-5,5,50,50,-1,0,0,0,0,1,0,0,0,0,0,0,1,1,100,100,-180,180,0,0,0,0,1,8,64,1,1,10,0,3,0,System.Byte[],0.01,-1,-1,-1,0,30000,100000,-1,1,100000,-1,5200530,0,0,0,System.Byte[],0,0,0,1,0,6,3,-1,1,0,20,0,2,5,0,0,0,0,0,0,0,0,0,0.1,1,1,5,5,1,255,255,255,-1,System.Byte[]
447605,-1,-1,0,0,-5,5,15,15,-1,0,0,0,0,1,0,0,0,0,0,0,1,1,100,100,-180,180,0,0,0,0,1,8,64,1,1,10,0,3,0,System.Byte[],0.01,-1,-1,-1,0,30000,100000,-1,1,100000,-1,5200530,0,0,0,System.Byte[],0,0,0,1,0,6,3,-1,1,0,20,0,2,5,0,0,0,0,0,0,0,0,0,0.1,1,1,5,5,1,255,255,255,-1,System.Byte[]
447606,-1,-1,0,0,-5,5,37.5,37.5,-1,0,0,0,0,1,0,0,0,0,0,0,1,1,100,100,-180,180,0,0,0,0,1,8,64,1,1,10,0,3,0,System.Byte[],0.01,-1,-1,-1,0,30000,100000,-1,1,100000,-1,5200530,0,0,0,System.Byte[],0,0,0,1,0,6,3,-1,1,0,20,0,2,5,0,0,0,0,0,0,0,0,0,0.1,1,1,5,5,1,255,255,255,-1,System.Byte[]
448000,100000,-1,-90,0,-1,1,6,6,-1,0,0,0,0,1,0,1,0,0,0,0,1,0,80,180,-20,20,-10,10,-10,10,1,8,64,1,1,1.5,0,15,1,System.Byte[],0.05,-1,-1,-1,0,100010,100000,100000,1,100000,-1,-1,40,1,2,System.Byte[],50,1,2,1,0.8,130,10,0,1,0,1,10,2,5,0,0,3,0,0,0,0,0,0,0.5,1,10,5,50,0,255,255,255,-1,System.Byte[]
449000,-1,-1,-90,0,-1,5,7,8,-1,0,0,0,0,1,0,0,1,0,0,0,0,0,100,110,-180,180,0,0,0,0,0,8,8,1,0,0,0,0,0,System.Byte[],0.01,-1,-1,-1,0,100010,210000,9900000,1,5421500,-1,-1,40,15,15,System.Byte[],20,7,7,1,1,130,3,-1,1,1,1,10,2,5,0,0,0,0,0,0,0,0,0,0.1,1,1,5,5,1,255,255,255,65,System.Byte[]
449001,-1,-1,-90,0,-1,5,3.5,4,-1,0,0,0,0,1,0,0,1,0,0,0,0,0,100,110,-180,180,0,0,0,0,0,8,8,1,0,0,0,0,0,System.Byte[],0.01,-1,-1,-1,0,100010,210000,9900000,1,5421500,-1,-1,40,15,15,System.Byte[],20,7,7,1,1,130,3,-1,1,1,1,10,2,5,0,0,0,0,0,0,0,0,0,0.1,1,1,5,5,1,255,255,255,65,System.Byte[]
471000,700000,-1,0,0,-2,3,3,3,-1,0,0,0,0,1,0,0,1,0,0,0,1,1,100,100,-180,180,0,0,0,0,1,8,64,1,1,30,0,2,0,System.Byte[],0.01,-1,-1,-1,0,-1,-1,9900030,1,700000,-1,-1,158,207,255,System.Byte[],158,207,255,1,1,2,1,0,1,0,1,10,2,5,0,0,0,0,0,0,0,0,0,0.125,0.25,1,10,50,1,255,255,255,-1,System.Byte[]
471001,700000,-1,0,0,-2,3,6,6,-1,0,0,0,0,1,0,0,1,0,0,0,1,1,100,100,-180,180,0,0,0,0,1,8,64,1,1,30,0,0.95,0,System.Byte[],0.01,-1,-1,-1,0,-1,-1,9900030,1,700000,-1,-1,158,207,255,System.Byte[],158,207,255,1,1,0.95,1.35,0,1,0,1,10,2,5,0,0,0,0,0,0,0,0,0,0,0.25,1,10,50,1,255,255,255,-1,System.Byte[]
471002,700000,-1,0,0,-2,3,4,4,-1,0,0,0,0,1,0,0,1,0,0,0,1,1,100,150,-180,180,0,0,0,0,1,8,64,1,1,30,0,2,0,System.Byte[],0.01,-1,-1,-1,0,-1,-1,9900030,1,700000,-1,-1,158,207,255,System.Byte[],158,207,255,1,1,2,1,0,1,0,1,10,2,5,0,0,0,0,0,0,0,0,0,0.125,0.5,-4,1,1,1,255,255,255,-1,System.Byte[]
471003,700000,-1,0,0,-2,3,13,13,-1,0,0,0,0,1,0,0,1,0,0,0,1,1,100,100,-180,180,0,0,0,0,1,8,64,1,1,30,0,5.5,0,System.Byte[],0.01,-1,-1,-1,0,-1,-1,9900030,1,700000,-1,-1,158,207,255,System.Byte[],158,207,255,1,1,5.5,1,0,1,0,1,10,2,5,0,0,0,0,0,0,0,0,0,0.125,0.25,1,10,50,1,255,255,255,-1,System.Byte[]
610001,100000,-1,-90,-90,-2,1,7,7,-1,0,0,0,0,1,0,1,1,0,0,0,0,0,100,100,-100,-80,0,0,0,0,1,8,64,1,1,0,0,0,1,System.Byte[],0.05,-1,-1,-1,0,100013,100000,100000,0.9,5421500,-1,-1,188,15,15,System.Byte[],90,7,7,1,0.9,30,5,0,0,0,1,10,2,5,0,0,0,0,0,0,0,0,0,0,1,10,5,50,0,255,255,255,-1,System.Byte[]
610002,100000,-1,-90,-90,-2,1,5,5,-1,0,0,0,0,1,0,1,1,0,0,0,0,0,100,100,60,60,0,0,0,0,1,8,64,1,1,0,0,0,1,System.Byte[],0.05,-1,-1,-1,0,100011,100000,100000,0.9,5421500,-1,-1,188,15,15,System.Byte[],90,7,7,1,0.9,30,5,0,0,0,1,10,2,5,0,0,0,0,0,0,0,0,0,0,1,10,5,50,0,255,255,255,-1,System.Byte[]
610003,100000,-1,-90,-90,-2,1,5,5,-1,0,0,0,0,1,0,1,1,0,0,0,0,0,100,100,-180,180,0,0,0,0,1,8,64,1,1,0,0,0,1,System.Byte[],0.05,-1,-1,-1,0,100010,100000,100000,0.9,5421500,-1,-1,188,15,15,System.Byte[],90,7,7,1,0.9,30,5,0,0,0,1,10,2,5,0,0,0,0,0,0,0,0,0,0,1,10,5,50,0,255,255,255,-1,System.Byte[]
610004,-1,-1,0,0,0,3,1,1,-1,0,0,0,0,0,1,1,1,0,0,0,0,0,100,100,0,0,0,0,0,0,1,8,64,1,0,0,0,0,0,System.Byte[],0.05,-1,-1,-1,0,5500500,10,100000,0.9,5421500,-1,-1,37,3,3,System.Byte[],90,7,7,0,0.9,30,5,0,0,0,1,10,2,5,0,0,0,0,0,0,0,0,0,0,1,10,5,50,0,255,255,255,-1,System.Byte[]
611520,100000,-1,0,-130,-4,3,5,5,-1,0,0,0,0,0,1,1,1,0,0,0,0,0,100,100,0,0,0,0,0,0,1,8,64,1,0,0,0,0,0,System.Byte[],0.05,-1,-1,-1,0,100010,100000,100000,0.9,5421500,-1,-1,188,15,15,System.Byte[],90,7,7,1,0.9,30,5,0,0,0,1,10,2,5,0,0,0,0,0,0,0,0,0,0,1,10,5,50,0,255,255,255,-1,System.Byte[]
611521,100000,-1,0,-110,-3,3,5,7,-1,0,0,0,0,0,1,1,1,0,0,0,0,0,100,100,0,0,0,0,0,0,1,8,64,1,0,0,0,0,0,System.Byte[],0.05,-1,-1,-1,0,100010,100000,100000,0.9,5421500,-1,-1,188,15,15,System.Byte[],90,7,7,1,0.9,30,5,0,0,0,1,10,2,5,0,0,0,0,0,0,0,0,0,0,1,10,5,50,0,255,255,255,-1,System.Byte[]
611522,100000,-1,-40,-120,-3,4,3,10,-1,0,0,0,0,0,1,1,1,0,0,0,0,0,100,100,0,0,0,0,0,0,1,8,64,1,0,0,0,0,0,System.Byte[],0.05,-1,-1,-1,0,100010,100000,100000,0.9,5421500,-1,-1,188,15,15,System.Byte[],90,7,7,1,0.9,30,5,0,0,0,1,10,2,5,0,0,0,0,0,0,0,0,0,0,1,10,5,50,0,255,255,255,-1,System.Byte[]
611523,100000,-1,100,-30,-4,4,4,7,-1,0,0,0,0,0,1,1,1,0,0,0,0,0,100,100,0,0,0,0,0,0,1,8,64,1,0,0,0,0,0,System.Byte[],0.05,-1,-1,-1,0,100010,100000,100000,0.9,5421500,-1,-1,188,15,15,System.Byte[],90,7,7,1,0.9,30,5,0,0,0,1,10,2,5,0,0,0,0,0,0,0,0,0,0,1,10,5,50,0,255,255,255,-1,System.Byte[]
611524,100000,-1,0,0,-4,3,5,5,-1,0,0,0,0,0,1,1,1,0,0,0,0,0,100,100,0,0,0,0,0,0,1,8,64,1,0,0,0,0,0,System.Byte[],0.05,-1,-1,-1,0,100010,100000,100000,0.9,5421500,-1,-1,188,15,15,System.Byte[],90,7,7,1,0.9,30,5,0,0,0,1,10,2,5,0,0,0,0,0,0,0,0,0,0,1,10,5,50,0,255,255,255,-1,System.Byte[]
611701,-1,-1,0,0,-5,50,15,55,-1,0,0,0,0,1,0,0,1,0,0,0,0,0,100,100,-180,180,0,0,0,0,1,8,64,1,0,0.1,0,1,0,System.Byte[],0.01,-1,-1,-1,0,30000,100000,100000,1,100000,-1,5100000,0,0,0,System.Byte[],0,0,0,0,0,10,3,-1,0,0,20,60,2,5,0,0,0,0,0,0,0,0,0,0.5,0.3,1,0,30,1,255,255,255,30,System.Byte[]
613001,100000,-1,0,0,-2,3,1,6,-1,0,0,0,0,1,0,1,1,0,0,0,0,1,100,100,-100,-80,0,0,0,0,1,8,64,1,0,0,0,0,1,System.Byte[],0.05,-1,-1,-1,0,100013,100000,100000,0.9,5421500,-1,-1,188,15,15,System.Byte[],90,7,7,1,0.9,30,5,0,0,0,1,10,2,5,0,0,0,0,0,0,0,0,0,0,1,10,5,50,0,255,255,255,-1,System.Byte[]
619000,-1,-1,0,0,-5,10,10,15,-1,0,0,0,0,1,0,0,1,0,0,0,1,0,100,180,-180,180,0,0,0,0,1,8,64,1,0,10,0,5,0,System.Byte[],0.01,-1,-1,645007,0,30000,100000,100000,1,100000,-1,5200530,0,0,0,System.Byte[],0,0,0,1,0,10,3,-1,0,0,20,60,2,5,0,0,0,0,0,0,0,0,0,1,0.3,1,0,30,1,255,255,255,30,System.Byte[]
619001,-1,-1,0,0,-5,10,10,15,-1,0,0,0,0,1,0,0,1,0,0,0,1,0,100,180,-180,180,0,0,0,0,1,8,64,1,0,10,0,5,0,System.Byte[],0.01,-1,-1,645007,0,30000,100000,100000,1,100000,-1,5200530,0,0,0,System.Byte[],0,0,0,1,0,10,3,-1,0,0,20,60,2,5,0,0,0,0,0,0,0,0,0,1,0.3,1,0,30,1,255,255,255,30,System.Byte[]
619002,-1,-1,0,0,-5,10,10,15,-1,0,0,0,0,1,0,0,1,0,0,0,1,0,100,180,-180,180,0,0,0,0,1,8,64,1,0,10,0,5,0,System.Byte[],0.01,-1,-1,645007,0,30000,100000,100000,1,100000,-1,5200530,0,0,0,System.Byte[],0,0,0,1,0,10,3,-1,0,0,20,60,2,5,0,0,0,0,0,0,0,0,0,1,0.3,1,0,30,1,255,255,255,30,System.Byte[]
619003,-1,-1,0,0,-5,10,10,15,-1,0,0,0,0,1,0,0,1,0,0,0,1,0,100,180,-180,180,0,0,0,0,1,8,64,1,0,10,0,5,0,System.Byte[],0.01,-1,-1,645007,0,30000,100000,100000,1,100000,-1,5200530,0,0,0,System.Byte[],0,0,0,1,0,10,3,-1,0,0,20,60,2,5,0,0,0,0,0,0,0,0,0,1,0.3,1,0,30,1,255,255,255,30,System.Byte[]
619004,-1,-1,0,0,-5,10,10,15,-1,0,0,0,0,1,0,0,1,0,0,0,1,0,100,180,-180,180,0,0,0,0,1,8,64,1,0,10,0,5,0,System.Byte[],0.01,-1,-1,645007,0,30000,100000,100000,1,100000,-1,5200530,0,0,0,System.Byte[],0,0,0,1,0,10,3,-1,0,0,20,60,2,5,0,0,0,0,0,0,0,0,0,1,0.3,1,0,30,1,255,255,255,30,System.Byte[]
619005,-1,-1,0,0,-5,10,10,15,-1,0,0,0,0,1,0,0,1,0,0,0,1,0,100,180,-180,180,0,0,0,0,1,8,64,1,0,10,0,5,0,System.Byte[],0.01,-1,-1,645007,0,30000,100000,100000,1,100000,-1,5200530,0,0,0,System.Byte[],0,0,0,1,0,10,3,-1,0,0,20,60,2,5,0,0,0,0,0,0,0,0,0,1,0.3,1,0,30,1,255,255,255,30,System.Byte[]
619006,-1,-1,0,0,-5,10,10,15,-1,0,0,0,0,1,0,0,1,0,0,0,1,0,100,180,-180,180,0,0,0,0,1,8,64,1,0,10,0,5,0,System.Byte[],0.01,-1,-1,645007,0,30000,100000,100000,1,100000,-1,5200530,0,0,0,System.Byte[],0,0,0,1,0,10,3,-1,0,0,20,60,2,5,0,0,0,0,0,0,0,0,0,1,0.3,1,0,30,1,255,255,255,30,System.Byte[]
619007,-1,-1,0,0,-5,10,10,15,-1,0,0,0,0,1,0,0,1,0,0,0,1,0,100,180,-180,180,0,0,0,0,1,8,64,1,0,10,0,5,0,System.Byte[],0.01,-1,-1,645007,0,30000,100000,100000,1,100000,-1,5200530,0,0,0,System.Byte[],0,0,0,1,0,10,3,-1,0,0,20,60,2,5,0,0,0,0,0,0,0,0,0,1,0.3,1,0,30,1,255,255,255,30,System.Byte[]
619008,-1,-1,0,0,-5,10,10,15,-1,0,0,0,0,1,0,0,1,0,0,0,1,0,100,180,-180,180,0,0,0,0,1,8,64,1,0,10,0,5,0,System.Byte[],0.01,-1,-1,645007,0,30000,100000,100000,1,100000,-1,5200530,0,0,0,System.Byte[],0,0,0,1,0,10,3,-1,0,0,20,60,2,5,0,0,0,0,0,0,0,0,0,1,0.3,1,0,30,1,255,255,255,30,System.Byte[]
660520,100000,-1,-90,-100,-10,40,15,30,-1,0,0,0,0,1,0,1,1,0,0,0,0,0,100,100,130,130,110,110,-30,-30,1,8,64,1,1,0,0,0,1,System.Byte[],0.05,-1,-1,-1,0,100010,100000,100000,0.9,5421500,-1,-1,188,15,15,System.Byte[],90,7,7,1,0.9,30,5,0,0,0,1,10,2,5,0,0,0,0,0,0,0,0,0,0,1,10,5,50,0,255,255,255,-1,System.Byte[]
810001,-1,-1,0,0,-2,5,1,1,-1,0,0,0,0,1,1,1,0,0,0,0,1,0,100,100,-180,180,0,0,0,0,1,8,64,1,0,40,0,15,1,System.Byte[],0.05,-1,-1,-1,0,170100,10,10,1,-1,-1,-1,18,2,2,System.Byte[],200,5,5,0,1,60,10,0,1,1,1,10,2,5,3,0,0,0,0,0,0,0,0,0,1,10,5,50,0,255,255,255,-1,System.Byte[]
810101,-1,-1,0,0,-2,5,1,1,-1,0,0,0,0,1,1,1,0,0,0,0,1,0,100,100,-180,180,0,0,0,0,1,8,64,1,0,40,0,15,1,System.Byte[],0.05,-1,-1,-1,0,180000,10,10,1,-1,-1,-1,18,2,2,System.Byte[],200,5,5,0,1,60,10,0,1,1,1,10,2,5,3,0,0,0,0,0,0,0,0,0,1,10,5,50,0,255,255,255,-1,System.Byte[]
811201,-1,-1,0,0,-2,5,1,1,-1,0,0,0,0,1,1,1,0,0,0,0,1,0,100,100,-180,180,0,0,0,0,1,8,64,1,0,40,0,15,1,System.Byte[],0.05,-1,-1,-1,0,180000,10,10,1,-1,-1,-1,18,2,2,System.Byte[],200,5,5,0,1,60,10,0,1,1,1,10,2,5,3,0,0,0,0,0,0,0,0,0,1,10,5,50,0,255,255,255,-1,System.Byte[]
811211,-1,-1,0,0,-2,5,1,1,-1,0,0,0,0,1,1,1,0,0,0,0,1,0,100,100,-180,180,0,0,0,0,1,8,64,1,0,40,0,15,1,System.Byte[],0.05,-1,-1,-1,0,180000,10,10,1,-1,-1,-1,18,2,2,System.Byte[],200,5,5,0,1,60,10,0,1,1,1,10,2,5,3,0,0,0,0,0,0,0,0,0,1,10,5,50,0,255,255,255,-1,System.Byte[]
820001,-1,-1,0,0,-2,5,1,1,-1,0,0,0,0,0,1,1,0,0,0,0,0,0,100,100,-180,180,0,0,0,0,1,8,64,1,0,40,0,15,0,System.Byte[],0.05,-1,-1,-1,0,180000,10,10,1,-1,-1,-1,18,2,2,System.Byte[],200,5,5,0,1,60,10,0,1,1,1,10,2,5,3,0,0,0,0,0,0,0,0,0,1,10,5,50,0,255,255,255,-1,System.Byte[]
820101,-1,-1,0,180,-1,10,1,3,-1,0,0,0,0,0,1,1,0,0,0,0,0,0,100,100,-180,180,0,0,0,0,1,8,64,1,0,40,0,15,0,System.Byte[],0.05,-1,-1,-1,0,180000,10,10,1,-1,-1,-1,18,2,2,System.Byte[],200,5,5,0,1,60,10,0,1,1,1,10,2,5,3,0,0,0,0,0,0,0,0,0,1,10,5,50,0,255,255,255,-1,System.Byte[]
821200,-1,-1,0,0,-1,10,1.5,1.5,-1,0,0,0,0,1,0,1,0,0,0,0,1,1,100,100,-180,180,-5,-5,-5,-5,1,8,64,1,0,40,0,15,0,System.Byte[],0.05,-1,-1,-1,0,190000,10,10,1,-1,-1,-1,18,2,2,System.Byte[],200,5,5,0,1,60,10,0,0,1,1,10,2,5,3,0,0,0,0,0,0,0,0,0,1,10,5,50,0,255,255,255,-1,System.Byte[]
821201,-1,-1,0,0,-1,10,3,3,-1,0,0,0,0,1,0,1,0,0,0,0,1,1,100,100,-180,180,-5,5,-5,5,1,8,64,1,1,40,0,15,0,System.Byte[],0.05,-1,-1,-1,0,190000,10,10,1,-1,-1,-1,18,2,2,System.Byte[],200,5,5,0,1,60,10,0,0,1,1,10,2,5,3,0,0,0,0,0,0,0,0,0,1,10,5,50,0,255,255,255,-1,System.Byte[]
821210,-1,-1,0,0,-1,15,1.5,1.5,-1,0,0,0,0,1,0,1,0,0,0,0,1,1,100,150,-180,180,-5,5,-5,5,1,8,64,1,1,40,0,15,0,System.Byte[],0.05,-1,-1,-1,0,180000,10,10,1,-1,-1,-1,18,2,2,System.Byte[],200,5,5,0,1,60,10,0,0,1,1,10,2,5,3,0,0,0,0,0,0,0,0,0,1,10,5,50,0,255,255,255,-1,System.Byte[]
821211,-1,-1,0,0,-1,15,3,3,-1,0,0,0,0,1,0,1,0,0,0,0,1,1,100,150,-180,180,-5,5,-5,5,1,8,64,1,1,40,0,15,0,System.Byte[],0.05,-1,-1,-1,0,180000,10,10,1,-1,-1,-1,18,2,2,System.Byte[],200,5,5,0,1,60,10,0,0,1,1,10,2,5,3,0,0,0,0,0,0,0,0,0,1,10,5,50,0,255,255,255,-1,System.Byte[]
821220,-1,-1,0,0,-1,15,1.5,1.5,-1,0,0,0,0,1,0,1,0,0,0,0,1,1,100,150,-180,180,-5,5,-5,5,1,8,64,1,1,40,0,15,0,System.Byte[],0.05,-1,-1,-1,0,170100,10,10,1,-1,-1,-1,18,2,2,System.Byte[],200,5,5,0,1,60,10,0,0,1,1,10,2,5,3,0,0,0,0,0,0,0,0,0,1,10,5,50,0,255,255,255,-1,System.Byte[]
821221,-1,-1,0,0,-1,15,3,3,-1,0,0,0,0,1,0,1,0,0,0,0,1,1,100,150,-180,180,-5,5,-5,5,1,8,64,1,1,40,0,15,0,System.Byte[],0.05,-1,-1,-1,0,170100,10,10,1,-1,-1,-1,18,2,2,System.Byte[],200,5,5,0,1,60,10,0,0,1,1,10,2,5,3,0,0,0,0,0,0,0,0,0,1,10,5,50,0,255,255,255,-1,System.Byte[]
100300020,-1,-1,-90,0,-0.5,5,2,2,-1,0,0,0,0,1,0,1,0,0,0,0,0,0,100,125,-180,180,0,0,0,0,1,8,64,1,1,0,0,0,0,System.Byte[],0.05,-1,-1,-1,0,100000,100000,100000,1,-1,-1,-1,3,7,2,System.Byte[],255,255,255,0,1,60,3,0,0,1,1,10,2,5,0,0,5,0,0,0,0,0,0,0,1,10,5,50,0,255,255,255,-1,System.Byte[]
100360000,-1,-1,0,0,-0.5,5,0.6,3,-1,0,0,0,0,1,0,0,0,0,0,0,1,0,100,100,0,0,0,0,0,0,1,8,64,1,0,40,0,15,0,System.Byte[],0.05,-1,-1,-1,0,100010,100000,100000,1,5421500,-1,-1,3,7,2,System.Byte[],255,255,255,0,1,180,30,0,0,0,1,10,2,5,3,0,5,0,0,0,0,0,0,0,1,10,5,50,0,255,255,255,-1,System.Byte[]
100400010,100000,-1,-90,-90,-1,2,1.5,8,-1,0,0,0,0,1,0,1,1,0,0,0,1,0,100,100,0,180,0,0,0,0,1,8,64,1,1,1.5,0,15,1,System.Byte[],0.05,-1,-1,-1,0,100010,100000,100000,0.5,5421500,-1,-1,96,96,96,System.Byte[],48,48,48,1,0.9,6,2,0,1,0,1,10,2,5,0,0,4,0,0,0,0,0,0,0.1,1,10,3,5,0,255,255,255,-1,System.Byte[]
100400011,100000,-1,-90,-90,-1,2,2.5,12,-1,0,0,0,0,1,0,1,1,0,0,0,1,0,100,100,0,180,0,0,0,0,1,8,64,1,1,1.5,0,15,1,System.Byte[],0.05,-1,-1,-1,0,100010,100000,100000,0.5,5421500,-1,-1,96,96,96,System.Byte[],48,48,48,1,0.9,6,2,0,1,0,1,10,2,5,0,0,4,0,0,0,0,0,0,0.1,1,10,3,5,0,255,255,255,-1,System.Byte[]
100400012,100000,-1,-90,-90,-1,2,3.5,16,-1,0,0,0,0,1,0,1,1,0,0,0,1,0,100,100,0,180,0,0,0,0,1,8,64,1,1,1.5,0,15,1,System.Byte[],0.05,-1,-1,-1,0,100010,100000,100000,0.5,5421500,-1,-1,96,96,96,System.Byte[],48,48,48,1,0.9,6,2,0,1,0,1,10,2,5,0,0,4,0,0,0,0,0,0,0.1,1,10,3,5,0,255,255,255,-1,System.Byte[]
100435505,100000,-1,-90,-90,-3,1,4,4,-1,0,0,0,0,1,0,1,1,0,0,0,1,0,100,100,0,180,-20,20,-20,20,1,8,64,1,1,1.5,0,15,0,System.Byte[],0.05,-1,-1,-1,0,5500500,210000,100000,0.5,5421500,-1,-1,96,96,96,System.Byte[],48,48,48,1,0.9,6,2,0,1,0,1,10,2,5,0,0,0,0,0,0,0,0,0,2,0.5,3,25,50,1,255,255,255,-1,System.Byte[]
100800001,-1,-1,0,0,-2,5,1,1,-1,0,0,0,0,1,1,1,0,0,0,0,1,0,100,100,-180,180,0,0,0,0,1,8,64,1,0,40,0,15,1,System.Byte[],0.05,-1,-1,-1,0,170100,10,10,1,-1,-1,-1,18,2,2,System.Byte[],200,5,5,0,1,60,10,0,1,1,1,10,2,5,3,0,0,0,0,0,0,0,0,0,1,10,5,50,0,255,255,255,-1,System.Byte[]
100801001,-1,-1,0,0,-2,5,1,1,-1,0,0,0,0,1,1,1,0,0,0,0,1,0,100,100,-180,180,0,0,0,0,1,8,64,1,0,40,0,15,1,System.Byte[],0.05,-1,-1,-1,0,180000,10,10,1,-1,-1,-1,18,2,2,System.Byte[],200,5,5,0,1,60,10,0,1,1,1,10,2,5,3,0,0,0,0,0,0,0,0,0,1,10,5,50,0,255,255,255,-1,System.Byte[]
100812001,-1,-1,0,0,-2,5,1,1,-1,0,0,0,0,1,1,1,0,0,0,0,1,0,100,100,-180,180,0,0,0,0,1,8,64,1,0,40,0,15,1,System.Byte[],0.05,-1,-1,-1,0,180000,10,10,1,-1,-1,-1,18,2,2,System.Byte[],200,5,5,0,1,60,10,0,1,1,1,10,2,5,3,0,0,0,0,0,0,0,0,0,1,10,5,50,0,255,255,255,-1,System.Byte[]
100812011,-1,-1,0,0,-2,5,1,1,-1,0,0,0,0,1,1,1,0,0,0,0,1,0,100,100,-180,180,0,0,0,0,1,8,64,1,0,40,0,15,1,System.Byte[],0.05,-1,-1,-1,0,180000,10,10,1,-1,-1,-1,18,2,2,System.Byte[],200,5,5,0,1,60,10,0,1,1,1,10,2,5,3,0,0,0,0,0,0,0,0,0,1,10,5,50,0,255,255,255,-1,System.Byte[]
100820001,-1,-1,0,0,-2,5,1,1,-1,0,0,0,0,0,1,1,0,0,0,0,0,0,100,100,-180,180,0,0,0,0,1,8,64,1,0,40,0,15,0,System.Byte[],0.05,-1,-1,-1,0,180000,10,10,1,-1,-1,-1,3,7,2,System.Byte[],128,128,128,0,1,60,10,0,1,1,1,10,2,5,3,0,0,0,0,0,0,0,0,0,1,10,5,50,0,255,255,255,-1,System.Byte[]
100820101,-1,-1,0,180,-1,10,1,3,-1,0,0,0,0,0,1,1,0,0,0,0,0,0,100,100,-180,180,0,0,0,0,1,8,64,1,0,40,0,15,0,System.Byte[],0.05,-1,-1,-1,0,180000,10,10,1,-1,-1,-1,3,7,2,System.Byte[],128,128,128,0,1,60,10,0,1,1,1,10,2,5,3,0,0,0,0,0,0,0,0,0,1,10,5,50,0,255,255,255,-1,System.Byte[]
100821200,-1,-1,0,0,-1,10,1.5,1.5,-1,0,0,0,0,1,0,1,0,0,0,0,0,1,100,100,-180,180,-5,-5,-5,-5,1,8,64,1,0,40,0,15,0,System.Byte[],0.05,-1,-1,-1,0,190000,10,10,1,-1,-1,-1,3,7,2,System.Byte[],128,128,128,0,1,60,10,0,0,1,1,10,2,5,3,0,0,0,0,0,0,0,0,0,1,10,5,50,0,255,255,255,-1,System.Byte[]
100821201,-1,-1,0,0,-1,10,3,3,-1,0,0,0,0,1,0,1,0,0,0,0,0,1,100,100,-180,180,-5,5,-5,5,1,8,64,1,1,40,0,15,0,System.Byte[],0.05,-1,-1,-1,0,190000,10,10,1,-1,-1,-1,3,7,2,System.Byte[],128,128,128,0,1,60,10,0,0,1,1,10,2,5,3,0,0,0,0,0,0,0,0,0,1,10,5,50,0,255,255,255,-1,System.Byte[]
100821210,-1,-1,0,0,-1,15,1.5,1.5,-1,0,0,0,0,1,0,1,0,0,0,0,0,1,100,150,-180,180,-5,5,-5,5,1,8,64,1,1,40,0,15,0,System.Byte[],0.05,-1,-1,-1,0,180000,10,10,1,-1,-1,-1,3,7,2,System.Byte[],128,128,128,0,1,60,10,0,0,1,1,10,2,5,3,0,0,0,0,0,0,0,0,0,1,10,5,50,0,255,255,255,-1,System.Byte[]
100821211,-1,-1,0,0,-1,15,3,3,-1,0,0,0,0,1,0,1,0,0,0,0,0,1,100,150,-180,180,-5,5,-5,5,1,8,64,1,1,40,0,15,0,System.Byte[],0.05,-1,-1,-1,0,180000,10,10,1,-1,-1,-1,3,7,2,System.Byte[],128,128,128,0,1,60,10,0,0,1,1,10,2,5,3,0,0,0,0,0,0,0,0,0,1,10,5,50,0,255,255,255,-1,System.Byte[]
100821220,-1,-1,0,0,-1,15,1.5,1.5,-1,0,0,0,0,1,0,1,0,0,0,0,0,1,100,150,-180,180,-5,5,-5,5,1,8,64,1,1,40,0,15,0,System.Byte[],0.05,-1,-1,-1,0,170100,10,10,1,-1,-1,-1,3,7,2,System.Byte[],128,128,128,0,1,60,10,0,0,1,1,10,2,5,3,0,0,0,0,0,0,0,0,0,1,10,5,50,0,255,255,255,-1,System.Byte[]
100821221,-1,-1,0,0,-1,15,3,3,-1,0,0,0,0,1,0,1,0,0,0,0,0,1,100,150,-180,180,-5,5,-5,5,1,8,64,1,1,40,0,15,0,System.Byte[],0.05,-1,-1,-1,0,170100,10,10,1,-1,-1,-1,3,7,2,System.Byte[],128,128,128,0,1,60,10,0,0,1,1,10,2,5,3,0,0,0,0,0,0,0,0,0,1,10,5,50,0,255,255,255,-1,System.Byte[]
300003101,-1,-1,-90,0,-0.1,0.45,0.35,0.35,-1,0,0,0,0,1,0,0,1,0,0,0,1,0,100,100,0,0,0,0,0,0,0,8,64,1,0,40,0,15,0,System.Byte[],0.01,-1,-1,-1,0,100000000,210000,9900000,1,100000000,-1,-1,54,39,28,System.Byte[],10,10,10,1,1,30,10,0,0,0,0,0,1,1,0,0,0,0,0,0,0,0,0,0.1,1,10,5,50,0,255,255,255,-1,System.Byte[]
300003111,-1,-1,-90,0,-0.1,0.45,0.375,0.375,-1,0,0,0,0,1,0,0,1,0,0,0,1,0,100,100,0,0,0,0,0,0,0,8,64,1,0,40,0,15,0,System.Byte[],0.01,-1,-1,-1,0,100001000,210000,9900000,1,100001000,-1,-1,54,39,28,System.Byte[],10,10,10,1,1,30,10,0,0,0,0,0,1,1,0,0,0,0,0,0,0,0,0,0.1,1,10,5,50,0,255,255,255,-1,System.Byte[]
300003121,-1,-1,-90,0,-25,1,0.25,0.25,-1,0,0,0,0,1,0,0,1,0,0,0,0,0,100,120,0,0,0,0,0,0,0,8,64,1,0,0,0,0,0,System.Byte[],0.01,-1,-1,-1,0,100002000,210000,9900000,1,100002000,-1,-1,54,39,28,System.Byte[],10,10,10,1,1,200,30,0,0,1,0,0,1,1,0,0,3,0,0,3,0,0,0,0.1,1,10,5,50,0,255,255,255,-1,System.Byte[]
300005101,-1,-1,-90,0,-0.1,0.45,0.35,0.35,-1,0,0,0,0,1,0,0,1,0,0,0,1,0,100,100,0,0,0,0,0,0,0,8,64,1,0,40,0,15,0,System.Byte[],0.01,-1,-1,-1,0,100000000,210000,9900000,1,100000000,-1,-1,21,15,11,System.Byte[],10,10,10,1,1,30,10,0,0,0,0,0,1,1,0,0,0,0,0,0,0,0,0,0.1,1,10,5,50,0,255,255,255,-1,System.Byte[]
300005111,-1,-1,-90,0,-0.1,0.45,0.375,0.375,-1,0,0,0,0,1,0,0,1,0,0,0,1,0,100,100,0,0,0,0,0,0,0,8,64,1,0,40,0,15,0,System.Byte[],0.01,-1,-1,-1,0,100001000,210000,9900000,1,100001000,-1,-1,21,15,11,System.Byte[],10,10,10,1,1,30,10,0,0,0,0,0,1,1,0,0,0,0,0,0,0,0,0,0.1,1,10,5,50,0,255,255,255,-1,System.Byte[]
300005121,-1,-1,-90,0,-25,1,0.25,0.25,-1,0,0,0,0,1,0,0,1,0,0,0,0,0,100,120,0,0,0,0,0,0,0,8,64,1,0,0,0,0,0,System.Byte[],0.01,-1,-1,-1,0,100002000,210000,9900000,1,100002000,-1,-1,21,15,11,System.Byte[],10,10,10,1,1,200,30,0,0,1,0,0,1,1,0,0,3,0,0,3,0,0,0,0.1,1,10,5,50,0,255,255,255,-1,System.Byte[]
300013101,-1,-1,-90,0,-0.1,0.45,0.35,0.35,-1,0,0,0,0,1,0,0,1,0,0,0,1,0,100,100,0,0,0,0,0,0,0,8,64,1,0,40,0,15,0,System.Byte[],0.01,-1,-1,-1,0,100000000,210000,9900000,1,100000000,-1,-1,10,10,10,System.Byte[],10,10,10,1,1,30,10,0,0,0,0,0,1,1,0,0,0,0,0,0,0,0,0,0.1,1,10,5,50,0,255,255,255,-1,System.Byte[]
300013111,-1,-1,-90,0,-0.1,0.45,0.375,0.375,-1,0,0,0,0,1,0,0,1,0,0,0,1,0,100,100,0,0,0,0,0,0,0,8,64,1,0,40,0,15,0,System.Byte[],0.01,-1,-1,-1,0,100001000,210000,9900000,1,100001000,-1,-1,10,10,10,System.Byte[],10,10,10,1,1,30,10,0,0,0,0,0,1,1,0,0,0,0,0,0,0,0,0,0.1,1,10,5,50,0,255,255,255,-1,System.Byte[]
300013121,-1,-1,-90,0,-25,1,0.25,0.25,-1,0,0,0,0,1,0,0,1,0,0,0,0,0,100,120,0,0,0,0,0,0,0,8,64,1,0,0,0,0,0,System.Byte[],0.01,-1,-1,-1,0,100002000,210000,9900000,1,100002000,-1,-1,10,10,10,System.Byte[],10,10,10,1,1,200,30,0,0,1,0,0,1,1,0,0,3,0,0,3,0,0,0,0.1,1,10,5,50,0,255,255,255,-1,System.Byte[]
300013121,-1,-1,-90,0,-25,1,0.25,0.25,-1,0,0,0,0,1,0,0,1,0,0,0,0,0,100,120,0,0,0,0,0,0,0,8,64,1,0,0,0,0,0,System.Byte[],0.01,-1,-1,-1,0,100002000,210000,9900000,1,100002000,-1,-1,10,10,10,System.Byte[],10,10,10,1,1,200,30,0,0,1,0,0,1,1,0,0,3,0,0,3,0,0,0,0.1,1,10,5,50,0,255,255,255,-1,System.Byte[]
300021101,-1,-1,-90,0,-0.1,0.45,0.35,0.35,-1,0,0,0,0,1,0,0,1,0,0,0,1,0,100,100,0,0,0,0,0,0,0,8,64,1,0,40,0,15,0,System.Byte[],0.01,-1,-1,-1,0,100000000,210000,9900000,1,100000000,-1,-1,10,10,10,System.Byte[],10,10,10,1,1,30,10,0,0,0,0,0,1,1,0,0,0,0,0,0,0,0,0,0.1,1,10,5,50,0,255,255,255,-1,System.Byte[]
300021111,-1,-1,-90,0,-0.1,0.45,0.375,0.375,-1,0,0,0,0,1,0,0,1,0,0,0,1,0,100,100,0,0,0,0,0,0,0,8,64,1,0,40,0,15,0,System.Byte[],0.01,-1,-1,-1,0,100001000,210000,9900000,1,100001000,-1,-1,10,10,10,System.Byte[],10,10,10,1,1,30,10,0,0,0,0,0,1,1,0,0,0,0,0,0,0,0,0,0.1,1,10,5,50,0,255,255,255,-1,System.Byte[]
300043100,-1,-1,-90,0,-0.1,0.45,0.175,0.175,-1,0,0,0,0,1,0,0,1,0,0,0,1,0,100,100,0,0,0,0,0,0,0,8,64,1,0,40,0,15,0,System.Byte[],0.01,-1,-1,-1,0,100000000,210000,9900000,1,100000000,-1,-1,10,10,10,System.Byte[],10,10,10,1,1,200,30,0,0,0,0,0,1,1,0,0,0,0,0,0,0,0,0,0.1,1,10,5,50,0,255,255,255,-1,System.Byte[]
300043101,-1,-1,-90,0,-0.1,0.45,0.35,0.35,-1,0,0,0,0,1,0,0,1,0,0,0,1,0,100,100,0,0,0,0,0,0,0,8,64,1,0,40,0,15,0,System.Byte[],0.01,-1,-1,-1,0,100000000,210000,9900000,1,100000000,-1,-1,10,10,10,System.Byte[],10,10,10,1,1,30,10,0,0,0,0,0,1,1,0,0,0,0,0,0,0,0,0,0.1,1,10,5,50,0,255,255,255,-1,System.Byte[]
300043102,-1,-1,-90,0,-0.1,0.45,0.525,0.525,-1,0,0,0,0,1,0,0,1,0,0,0,1,0,100,100,0,0,0,0,0,0,0,8,64,1,0,40,0,15,0,System.Byte[],0.01,-1,-1,-1,0,100000000,210000,9900000,1,100000000,-1,-1,10,10,10,System.Byte[],10,10,10,1,1,200,30,0,0,0,0,0,1,1,0,0,0,0,0,0,0,0,0,0.1,1,10,5,50,0,255,255,255,-1,System.Byte[]
300043103,-1,-1,-90,0,-0.1,0.45,0.7,0.7,-1,0,0,0,0,1,0,0,1,0,0,0,1,0,100,100,0,0,0,0,0,0,0,8,64,1,0,40,0,15,0,System.Byte[],0.01,-1,-1,-1,0,100000000,210000,9900000,1,100000000,-1,-1,10,10,10,System.Byte[],10,10,10,1,1,200,30,0,0,0,0,0,1,1,0,0,0,0,0,0,0,0,0,0.1,1,10,5,50,0,255,255,255,-1,System.Byte[]
300043104,-1,-1,-90,0,-0.1,0.45,1.05,1.05,-1,0,0,0,0,1,0,0,1,0,0,0,1,0,100,100,0,0,0,0,0,0,0,8,64,1,0,40,0,15,0,System.Byte[],0.01,-1,-1,-1,0,100000000,210000,9900000,1,100000000,-1,-1,10,10,10,System.Byte[],10,10,10,1,1,200,30,0,0,0,0,0,1,1,0,0,0,0,0,0,0,0,0,0.1,1,10,5,50,0,255,255,255,-1,System.Byte[]
300043105,-1,-1,-90,0,-0.1,0.45,1.5,1.5,-1,0,0,0,0,1,0,0,1,0,0,0,1,0,100,100,0,0,0,0,0,0,0,8,64,1,0,40,0,15,0,System.Byte[],0.01,-1,-1,-1,0,100000000,210000,9900000,1,100000000,-1,-1,10,10,10,System.Byte[],10,10,10,1,1,200,30,0,0,0,0,0,1,1,0,0,0,0,0,0,0,0,0,0.1,1,10,5,50,0,255,255,255,-1,System.Byte[]
300043106,-1,-1,-90,0,-0.1,0.45,0.375,0.375,-1,0,0,0,0,1,0,0,1,0,0,0,1,0,100,100,0,0,0,0,0,0,0,8,64,1,0,40,0,15,0,System.Byte[],0.01,-1,-1,-1,0,100000000,210000,9900000,1,100000000,-1,-1,10,10,10,System.Byte[],10,10,10,1,1,200,30,0,0,0,0,0,1,1,0,0,0,0,0,0,0,0,0,0.1,1,10,5,50,0,255,255,255,-1,System.Byte[]
300043111,-1,-1,-90,0,-0.1,0.45,0.375,0.375,-1,0,0,0,0,1,0,0,1,0,0,0,1,0,100,100,0,0,0,0,0,0,0,8,64,1,0,40,0,15,0,System.Byte[],0.01,-1,-1,-1,0,100001000,210000,9900000,1,100001000,-1,-1,10,10,10,System.Byte[],10,10,10,1,1,30,10,0,0,0,0,0,1,1,0,0,0,0,0,0,0,0,0,0.1,1,10,5,50,0,255,255,255,-1,System.Byte[]
300043121,-1,-1,-90,0,-25,1,0.25,0.25,-1,0,0,0,0,1,0,0,1,0,0,0,0,0,100,120,0,0,0,0,0,0,0,8,64,1,0,0,0,0,0,System.Byte[],0.01,-1,-1,-1,0,100002000,210000,9900000,1,100002000,-1,-1,125,125,125,System.Byte[],10,10,10,1,1,200,30,0,0,1,0,0,1,1,0,0,3,0,0,3,0,0,0,0.1,1,10,5,50,0,255,255,255,-1,System.Byte[]
300043131,-1,-1,-90,0,-25,1,0.3,0.3,-1,0,0,0,0,1,0,0,1,0,0,0,0,0,100,120,0,0,0,0,0,0,0,8,64,1,0,0,0,0,0,System.Byte[],0.01,-1,-1,-1,0,100003000,210000,9900000,1,100002000,-1,-1,10,10,10,System.Byte[],10,10,10,1,1,200,30,0,0,1,0,0,1,1,0,0,3,0,0,3,0,0,0,0.1,1,10,5,50,0,255,255,255,-1,System.Byte[]
300043141,-1,-1,-90,0,-25,1,0.3,0.3,-1,0,0,0,0,1,0,0,1,0,0,0,0,0,100,120,0,0,0,0,0,0,0,8,64,1,0,0,0,0,0,System.Byte[],0.01,-1,-1,-1,0,100004000,210000,9900000,1,100002000,-1,-1,10,10,10,System.Byte[],10,10,10,1,1,200,30,0,0,1,0,0,1,1,0,0,3,0,0,3,0,0,0,0.1,1,10,5,50,0,255,255,255,-1,System.Byte[]
300043151,-1,-1,-90,0,-0.1,0.45,0.375,0.375,-1,0,0,0,0,1,0,0,1,0,0,0,1,0,100,100,0,0,0,0,0,0,0,8,64,1,0,40,0,15,0,System.Byte[],0.01,-1,-1,-1,0,100003000,210000,9900000,1,100003001,-1,-1,10,10,10,System.Byte[],10,10,10,1,1,200,30,0,0,1,0,0,1,1,0,0,3,0,0,3,0,0,0,0.1,1,10,5,50,0,255,255,255,-1,System.Byte[]
300043199,-1,-1,-90,0,-0.1,1,2.5,2.5,-1,0,0,0,0,1,0,0,1,0,0,0,1,0,100,100,0,0,0,0,0,0,0,8,64,1,0,40,0,15,0,System.Byte[],0.01,-1,-1,-1,0,100000000,210000,9900000,1,100000000,-1,-1,10,10,10,System.Byte[],10,10,10,1,1,200,30,0,0,0,0,0,1,1,0,0,0,0,0,0,0,0,0,0.1,1,10,5,50,0,255,255,255,-1,System.Byte[]
300044101,-1,-1,-90,0,-0.1,0.45,0.35,0.35,-1,0,0,0,0,1,0,0,1,0,0,0,1,0,100,100,0,0,0,0,0,0,0,8,64,1,0,40,0,15,0,System.Byte[],0.01,-1,-1,-1,0,100000000,210000,9900000,1,100000000,-1,-1,10,10,10,System.Byte[],10,10,10,1,1,30,10,0,0,0,0,0,1,1,0,0,0,0,0,0,0,0,0,0.1,1,10,5,50,0,255,255,255,-1,System.Byte[]
300044111,-1,-1,-90,0,-0.1,0.45,0.375,0.375,-1,0,0,0,0,1,0,0,1,0,0,0,1,0,100,100,0,0,0,0,0,0,0,8,64,1,0,40,0,15,0,System.Byte[],0.01,-1,-1,-1,0,100001000,210000,9900000,1,100001000,-1,-1,10,10,10,System.Byte[],10,10,10,1,1,30,10,0,0,0,0,0,1,1,0,0,0,0,0,0,0,0,0,0.1,1,10,5,50,0,255,255,255,-1,System.Byte[]
300045101,-1,-1,-90,0,-0.1,0.45,0.35,0.35,-1,0,0,0,0,1,0,0,1,0,0,0,1,0,100,100,0,0,0,0,0,0,0,8,64,1,0,40,0,15,0,System.Byte[],0.01,-1,-1,-1,0,100000000,210000,9900000,1,100000000,-1,-1,10,10,10,System.Byte[],10,10,10,1,1,30,10,0,0,0,0,0,1,1,0,0,0,0,0,0,0,0,0,0.1,1,10,5,50,0,255,255,255,-1,System.Byte[]
300045111,-1,-1,-90,0,-0.1,0.45,0.375,0.375,-1,0,0,0,0,1,0,0,1,0,0,0,1,0,100,100,0,0,0,0,0,0,0,8,64,1,0,40,0,15,0,System.Byte[],0.01,-1,-1,-1,0,100001000,210000,9900000,1,100001000,-1,-1,10,10,10,System.Byte[],10,10,10,1,1,30,10,0,0,0,0,0,1,1,0,0,0,0,0,0,0,0,0,0.1,1,10,5,50,0,255,255,255,-1,System.Byte[]
600101000,-1,-1,-30,180,-0.5,5,0.6,3,-1,0,0,0,0,0,1,0,0,0,0,0,1,0,80,120,-20,40,-10,10,-10,10,1,8,64,1,2,40,0,0.75,1,System.Byte[],0.05,-1,-1,-1,0,170100,210000,100000,1,100000,-1,-1,64,64,64,System.Byte[],255,255,255,1,1,180,30,0,1,0,1,10,2,5,3,0,0,0,0,0,0,0,0,0,1,10,5,50,0,255,255,255,-1,System.Byte[]
600101001,-1,-1,-80,0,-0.5,5,0.6,3,-1,0,0,0,0,0,1,0,0,0,0,0,1,0,80,120,-20,40,-10,10,-10,10,1,8,64,1,2,40,0,0.75,1,System.Byte[],0.05,-1,-1,-1,0,170100,210000,100000,1,100000,-1,-1,64,64,64,System.Byte[],255,255,255,1,1,180,30,0,1,0,1,10,2,5,3,0,0,0,0,0,0,0,0,0,1,10,5,50,0,255,255,255,-1,System.Byte[]
600101002,-1,-1,40,0,-0.5,5,0.6,3,-1,0,0,0,0,0,1,0,0,0,0,0,1,0,80,120,-20,40,-10,10,-10,10,1,8,64,1,2,40,0,0.75,1,System.Byte[],0.05,-1,-1,-1,0,170100,210000,100000,1,100000,-1,-1,64,64,64,System.Byte[],255,255,255,1,1,180,30,0,1,0,1,10,2,5,3,0,0,0,0,0,0,0,0,0,1,10,5,50,0,255,255,255,-1,System.Byte[]
600101003,-1,-1,-30,-120,-0.5,5,0.6,2,-1,0,0,0,0,0,1,0,0,0,0,0,1,0,80,120,-20,40,-10,10,-10,10,1,8,64,1,2,40,0,0.75,1,System.Byte[],0.05,-1,-1,-1,0,170100,210000,100000,1,100000,-1,-1,64,64,64,System.Byte[],255,255,255,1,1,180,30,0,1,0,1,10,2,5,3,0,0,0,0,0,0,0,0,0,1,10,5,50,0,255,255,255,-1,System.Byte[]
600101004,-1,-1,-30,120,-0.5,5,0.6,2,-1,0,0,0,0,0,1,0,0,0,0,0,1,0,80,120,-20,40,-10,10,-10,10,1,8,64,1,2,40,0,0.75,1,System.Byte[],0.05,-1,-1,-1,0,170100,210000,100000,1,100000,-1,-1,64,64,64,System.Byte[],255,255,255,1,1,180,30,0,1,0,1,10,2,5,3,0,0,0,0,0,0,0,0,0,1,10,5,50,0,255,255,255,-1,System.Byte[]
600101100,-1,-1,-30,180,-0.5,5,0.6,3,-1,0,0,0,0,1,0,0,0,0,0,0,1,0,80,120,-20,40,-10,10,-10,10,1,8,64,1,2,40,0,0.75,1,System.Byte[],0.05,-1,-1,-1,0,100010,210000,100000,1,5421500,-1,-1,64,64,64,System.Byte[],255,255,255,1,1,180,30,0,1,0,1,10,2,5,3,0,5,0,0,0,0,0,0,0,1,10,5,50,0,255,255,255,-1,System.Byte[]
600101101,-1,-1,-80,0,-0.5,5,0.6,3,-1,0,0,0,0,1,0,0,0,0,0,0,1,0,80,120,-20,40,-10,10,-10,10,1,8,64,1,2,40,0,0.75,1,System.Byte[],0.05,-1,-1,-1,0,100010,210000,100000,1,5421500,-1,-1,64,64,64,System.Byte[],255,255,255,1,1,180,30,0,1,0,1,10,2,5,3,0,5,0,0,0,0,0,0,0,1,10,5,50,0,255,255,255,-1,System.Byte[]
600101102,-1,-1,40,0,-0.5,5,0.6,3,-1,0,0,0,0,1,0,0,0,0,0,0,1,0,80,120,-20,40,-10,10,-10,10,1,8,64,1,2,40,0,0.75,1,System.Byte[],0.05,-1,-1,-1,0,100010,210000,100000,1,5421500,-1,-1,64,64,64,System.Byte[],255,255,255,1,1,180,30,0,1,0,1,10,2,5,3,0,5,0,0,0,0,0,0,0,1,10,5,50,0,255,255,255,-1,System.Byte[]
600101103,-1,-1,-30,-120,-0.5,5,0.6,4,-1,0,0,0,0,1,0,0,0,0,0,0,1,0,80,120,-20,40,-10,10,-10,10,1,8,64,1,2,40,0,0.75,1,System.Byte[],0.05,-1,-1,-1,0,100310,210000,100000,1,5421500,-1,-1,64,64,64,System.Byte[],255,255,255,1,1,180,30,0,1,0,1,10,2,5,3,0,2,0,0,0,0,0,0,0,1,10,5,50,0,255,255,255,-1,System.Byte[]
600101104,-1,-1,-30,120,-0.5,5,0.6,4,-1,0,0,0,0,1,0,0,0,0,0,0,1,0,80,120,-20,40,-10,10,-10,10,1,8,64,1,2,40,0,0.75,1,System.Byte[],0.05,-1,-1,-1,0,100411,210000,100000,1,5421500,-1,-1,64,64,64,System.Byte[],255,255,255,1,1,180,30,0,1,0,1,10,2,5,3,0,2,0,0,0,0,0,0,0,1,10,5,50,0,255,255,255,-1,System.Byte[]
600109000,-1,-1,-30,180,-0.5,5,0.6,6,-1,0,0,0,0,0,1,1,0,0,0,0,1,0,80,120,-20,40,-10,10,-10,10,1,8,64,1,2,40,0,15,1,System.Byte[],0.05,-1,-1,-1,0,170100,100000,100000,1,100000,-1,-1,255,15,15,System.Byte[],255,200,200,1,1,300,30,0,1,0,1,10,2,5,3,0,0,0,0,0,0,0,0,0,1,10,5,50,0,255,255,255,-1,System.Byte[]
600109001,-1,-1,-80,0,-0.5,5,0.6,6,-1,0,0,0,0,0,1,1,0,0,0,0,1,0,80,120,-20,40,-10,10,-10,10,1,8,64,1,2,40,0,15,1,System.Byte[],0.05,-1,-1,-1,0,170100,100000,100000,1,100000,-1,-1,255,15,15,System.Byte[],255,200,200,1,1,300,30,0,1,0,1,10,2,5,3,0,0,0,0,0,0,0,0,0,1,10,5,50,0,255,255,255,-1,System.Byte[]
600109002,-1,-1,40,0,-0.5,5,0.6,6,-1,0,0,0,0,0,1,1,0,0,0,0,1,0,80,120,-20,40,-10,10,-10,10,1,8,64,1,2,40,0,15,1,System.Byte[],0.05,-1,-1,-1,0,170100,100000,100000,1,100000,-1,-1,255,15,15,System.Byte[],255,200,200,1,1,300,30,0,1,0,1,10,2,5,3,0,0,0,0,0,0,0,0,0,1,10,5,50,0,255,255,255,-1,System.Byte[]
600109003,-1,-1,-30,-120,-0.5,5,0.6,6,-1,0,0,0,0,0,1,1,0,0,0,0,1,0,80,120,-20,40,-10,10,-10,10,1,8,64,1,2,40,0,15,1,System.Byte[],0.05,-1,-1,-1,0,170100,100000,100000,1,100000,-1,-1,255,15,15,System.Byte[],255,200,200,1,1,300,30,0,1,0,1,10,2,5,3,0,0,0,0,0,0,0,0,0,1,10,5,50,0,255,255,255,-1,System.Byte[]
600109004,-1,-1,-30,120,-0.5,5,0.6,6,-1,0,0,0,0,0,1,1,0,0,0,0,1,0,80,120,-20,40,-10,10,-10,10,1,8,64,1,2,40,0,15,1,System.Byte[],0.05,-1,-1,-1,0,170100,100000,100000,1,100000,-1,-1,255,15,15,System.Byte[],255,200,200,1,1,300,30,0,1,0,1,10,2,5,3,0,0,0,0,0,0,0,0,0,1,10,5,50,0,255,255,255,-1,System.Byte[]
600109100,-1,-1,-30,180,-0.5,5,0.6,3,-1,0,0,0,0,1,0,1,0,0,0,0,1,0,80,120,-20,40,-10,10,-10,10,1,8,64,1,2,40,0,15,1,System.Byte[],0.05,-1,-1,-1,0,100010,100000,100000,1,5421500,-1,-1,200,20,20,System.Byte[],255,200,200,1,1,300,30,0,1,0,1,10,2,5,3,0,5,0,0,0,0,0,0,0,1,10,5,50,0,255,255,255,-1,System.Byte[]
600109101,-1,-1,-80,0,-0.5,5,0.6,3,-1,0,0,0,0,1,0,1,0,0,0,0,1,0,80,120,-20,40,-10,10,-10,10,1,8,64,1,2,40,0,15,1,System.Byte[],0.05,-1,-1,-1,0,100010,100000,100000,1,5421500,-1,-1,200,20,20,System.Byte[],255,200,200,1,1,300,30,0,1,0,1,10,2,5,3,0,5,0,0,0,0,0,0,0,1,10,5,50,0,255,255,255,-1,System.Byte[]
600109102,-1,-1,40,0,-0.5,5,0.6,3,-1,0,0,0,0,1,0,1,0,0,0,0,1,0,80,120,-20,40,-10,10,-10,10,1,8,64,1,2,40,0,15,1,System.Byte[],0.05,-1,-1,-1,0,100010,100000,100000,1,5421500,-1,-1,200,20,20,System.Byte[],255,200,200,1,1,300,30,0,1,0,1,10,2,5,3,0,5,0,0,0,0,0,0,0,1,10,5,50,0,255,255,255,-1,System.Byte[]
600109103,-1,-1,-30,-120,-0.5,5,0.6,4,-1,0,0,0,0,1,0,1,0,0,0,0,1,0,80,120,-20,40,-10,10,-10,10,1,8,64,1,2,40,0,15,1,System.Byte[],0.05,-1,-1,-1,0,100310,100000,100000,1,5421500,-1,-1,200,20,20,System.Byte[],255,200,200,1,1,300,30,0,1,0,1,10,2,5,3,0,2,0,0,0,0,0,0,0,1,10,5,50,0,255,255,255,-1,System.Byte[]
